{
  "respCode": "200",
  "respMessage": "Success",
  "respData": {
    "route": [
      {
        "stop_name": "TITRIYA",
        "stop_code": "TITR",
        "latitude": "26.660765",
        "longitude": "75.830794",
        "upcomingbuses": [],
        "isstoppass": "0"
      },
      {
        "stop_name": "BANSA",
        "stop_code": "BANSA",
        "latitude": "26.674211",
        "longitude": "75.85376",
        "upcomingbuses": [],
        "isstoppass": "0"
      },
      {
        "stop_name": "BHOJAN",
        "stop_code": "BHOJA",
        "latitude": "26.677915",
        "longitude": "75.860415",
        "upcomingbuses": [],
        "isstoppass": "0"
      },
      {
        "stop_name": "CHANDLAI",
        "stop_code": "CHDLA",
        "latitude": "26.685908",
        "longitude": "75.878024",
        "upcomingbuses": [],
        "isstoppass": "0"
      },
      {
        "stop_name": "SHIVDASPURA",
        "stop_code": "SDA",
        "latitude": "26.702972",
        "longitude": "75.89134",
        "upcomingbuses": [],
        "isstoppass": "0"
      },
      {
        "stop_name": "NANAKPURA",
        "stop_code": "NKR",
        "latitude": "26.735114",
        "longitude": "75.87572",
        "upcomingbuses": [],
        "isstoppass": "0"
      },
      {
        "stop_name": "NAGALIYA",
        "stop_code": "NGY",
        "latitude": "26.737126",
        "longitude": "75.866323",
        "upcomingbuses": [],
        "isstoppass": "0"
      },
      {
        "stop_name": "RADHA SWAMI",
        "stop_code": "RSI",
        "latitude": "26.741446",
        "longitude": "75.86386",
        "upcomingbuses": [],
        "isstoppass": "0"
      },
      {
        "stop_name": "BILWA",
        "stop_code": "BIA",
        "latitude": "26.749367",
        "longitude": "75.854378",
        "upcomingbuses": [],
        "isstoppass": "0"
      },
      {
        "stop_name": "12 MILE",
        "stop_code": "12M",
        "latitude": "26.769214",
        "longitude": "75.834993",
        "upcomingbuses": [],
        "isstoppass": "0"
      },
      {
        "stop_name": "SITAPURA",
        "stop_code": "SPR",
        "latitude": "26.781491",
        "longitude": "75.825153",
        "upcomingbuses": [],
        "isstoppass": "0"
      },
      {
        "stop_name": "INDIA GATE",
        "stop_code": "IAG",
        "latitude": "26.785294",
        "longitude": "75.822327",
        "upcomingbuses": [],
        "isstoppass": "0"
      },
      {
        "stop_name": "SECTOR 8",
        "stop_code": "SEC8",
        "latitude": "26.790803",
        "longitude": "75.818115",
        "upcomingbuses": [],
        "isstoppass": "0"
      },
      {
        "stop_name": "SECTOR 5",
        "stop_code": "SEC5",
        "latitude": "26.796513",
        "longitude": "75.813777",
        "upcomingbuses": [],
        "isstoppass": "0"
      },
      {
        "stop_name": "SECTOR 3",
        "stop_code": "SECT3",
        "latitude": "26.806148",
        "longitude": "75.806443",
        "upcomingbuses": [],
        "isstoppass": "0"
      },
      {
        "stop_name": "GOSHALA",
        "stop_code": "GHA",
        "latitude": "26.811027",
        "longitude": "75.802787",
        "upcomingbuses": [],
        "isstoppass": "0"
      },
      {
        "stop_name": "BOOKING",
        "stop_code": "BOOKI",
        "latitude": "26.815596",
        "longitude": "75.799506",
        "upcomingbuses": [],
        "isstoppass": "0"
      },
      {
        "stop_name": "SANGANER THANA",
        "stop_code": "SGT",
        "latitude": "26.819289",
        "longitude": "75.796494",
        "upcomingbuses": [],
        "isstoppass": "0"
      },
      {
        "stop_name": "RAM MANDIR",
        "stop_code": "RMN",
        "latitude": "26.829196",
        "longitude": "75.794128",
        "upcomingbuses": [],
        "isstoppass": "0"
      },
      {
        "stop_name": "TARO KI KOOT",
        "stop_code": "RMR",
        "latitude": "26.836531",
        "longitude": "75.793756",
        "upcomingbuses": [],
        "isstoppass": "0"
      },
      {
        "stop_name": "DURGAPURA",
        "stop_code": "DGP",
        "latitude": "26.838098",
        "longitude": "75.793708",
        "upcomingbuses": [],
        "isstoppass": "0"
      },
      {
        "stop_name": "MAHAVEER NAGAR",
        "stop_code": "MNAGA",
        "latitude": "26.851268",
        "longitude": "75.794173",
        "upcomingbuses": [],
        "isstoppass": "0"
      },
      {
        "stop_name": "GOPALPURA",
        "stop_code": "JHC",
        "latitude": "26.865813",
        "longitude": "75.79669",
        "upcomingbuses": [],
        "isstoppass": "0"
      },
      {
        "stop_name": "SAYEED KA GATTA",
        "stop_code": "SKGAT",
        "latitude": "26.87344",
        "longitude": "75.79743",
        "upcomingbuses": [],
        "isstoppass": "0"
      },
      {
        "stop_name": "TONK PHATAK",
        "stop_code": "GLA",
        "latitude": "26.879558",
        "longitude": "75.798903",
        "upcomingbuses": [],
        "isstoppass": "0"
      },
      {
        "stop_name": "GANDHI NAGAR MOD",
        "stop_code": "GNMOD",
        "latitude": "26.887774",
        "longitude": "75.802885",
        "upcomingbuses": [],
        "isstoppass": "0"
      },
      {
        "stop_name": "LAL KOTHI",
        "stop_code": "TKP",
        "latitude": "26.894371",
        "longitude": "75.808166",
        "upcomingbuses": [],
        "isstoppass": "0"
      },
      {
        "stop_name": "RAMBAGH CIRCLE",
        "stop_code": "RBC",
        "latitude": "26.896388",
        "longitude": "75.809838",
        "upcomingbuses": [],
        "isstoppass": "0"
      },
      {
        "stop_name": "NARAYAN SINGH CIRCLE",
        "stop_code": "NSCIR",
        "latitude": "26.900006",
        "longitude": "75.812213",
        "upcomingbuses": [],
        "isstoppass": "0"
      },
      {
        "stop_name": "SMS HOSPITAL",
        "stop_code": "RBH",
        "latitude": "26.90691",
        "longitude": "75.81507",
        "upcomingbuses": [],
        "isstoppass": "0"
      },
      {
        "stop_name": "MAHARANI COLLAGE",
        "stop_code": "MLAGE",
        "latitude": "26.91451",
        "longitude": "75.81681",
        "upcomingbuses": [],
        "isstoppass": "0"
      },
      {
        "stop_name": "AJMERI GATE",
        "stop_code": "AJG",
        "latitude": "26.91673",
        "longitude": "75.81733",
        "upcomingbuses": [],
        "isstoppass": "0"
      }
    ]
  }
}