stop_id,stop_code,stop_name,stop_lat,stop_lon
stop_27_04665_75_78873,BKHA,"BHAIRU KHEJDA",27.04665,75.78873
stop_27_03333_75_78484,TDEPO,"TODI DEPOT",27.033327,75.784843
stop_27_02891_75_76897,TODI,"TODI",27.02891,75.76897
stop_27_01735_75_76963,HARMA,"HARMARA",27.017351,75.769635
stop_27_01249_75_76942,NIMOD,"NINDHAR MOD",27.012489,75.769417
stop_27_00583_75_77074,ANOKH,"ANOKHA GAAV",27.005825,75.770744
stop_26_99722_75_77091,VKI14,"VKI NO. 14",26.997224,75.770914
stop_26_99303_75_77209,VKI12,"VKI NO. 12",26.993026,75.772093
stop_26_98687_75_77334,VKI9,"VKI NO. 9",26.986874,75.773338
stop_26_98230_75_77447,VK8,"VKI NO. 8",26.982304,75.77447
stop_26_97957_75_77432,VKI5,"VKI NO. 5",26.979571,75.774322
stop_26_97062_75_77259,VKI1,"VKI NO. 1",26.970617,75.772591
stop_26_96624_75_77255,MSCHO,"M. SCHOOL",26.966243,75.772551
stop_26_96074_75_77169,KEHOS,"KHETAN HOS",26.960742,75.771692
stop_26_95559_75_77160,DLAJI,"DHER KA BALAJI",26.955588,75.771602
stop_26_94603_75_77336,BETAN,"BHAWANI NIKETAN",26.94603,75.773364
stop_26_94102_75_77372,CUA,"CHOMU PULIYA",26.941019,75.773722
stop_26_94007_75_77725,26,"AMBA BARI",26.940066,75.777249
stop_26_93941_75_78617,PPACH,"PANI PACH",26.939408,75.786166
stop_26_93263_75_78492,CKA,"CHINKARA",26.93263,75.78492
stop_26_92643_75_78498,RMN,"RAM MANDIR",26.926432,75.784977
stop_26_92009_75_78929,RAILW,"RAILWAY STATION",26.92009,75.78929
stop_26_92298_75_80186,SCAMP,"SINDHI CAMP",26.92298,75.80186
stop_26_92581_75_80768,CDE,"CHANDPOLE",26.92581,75.80768
stop_26_92476_75_81877,COPAR,"CHOTI CHOPAR",26.92476,75.81877
stop_26_92312_75_82663,BOPAR,"BADI CHOPAR",26.92312,75.82663
stop_26_92090_75_83568,RAPAD,"RAMGANJ CHOPAD",26.9209,75.83568
stop_26_91767_75_84897,GALTA,"GALTA",26.91767,75.84897
stop_26_93934_75_78596,PPACH,"PANI PACH",26.93934,75.78596
stop_26_93986_75_77744,26,"AMBA BARI",26.93986,75.77744
stop_26_94000_75_77485,CUA,"CHOMU PULIYA",26.94,75.77485
stop_26_94612_75_77321,BETAN,"BHAWANI NIKETAN",26.94612,75.77321
stop_26_96074_75_77155,KEHOS,"KHETAN HOS",26.96074,75.77155
stop_26_96624_75_77225,MSCHO,"M. SCHOOL",26.96624,75.77225
stop_26_97061_75_77245,VKI1,"VKI NO. 1",26.97061,75.77245
stop_26_97918_75_77386,VKI5,"VKI NO. 5",26.97918,75.77386
stop_26_98229_75_77428,VK8,"VKI NO. 8",26.98229,75.77428
stop_26_98686_75_77323,VKI9,"VKI NO. 9",26.98686,75.77323
stop_26_99301_75_77201,VKI12,"VKI NO. 12",26.99301,75.77201
stop_26_99722_75_77077,VKI14,"VKI NO. 14",26.99722,75.77077
stop_27_01246_75_76931,NIMOD,"NINDHAR MOD",27.01246,75.76931
stop_27_01735_75_76955,HARMA,"HARMARA",27.01735,75.76955
stop_27_03343_75_78466,TDEPO,"TODI DEPOT",27.033432,75.784661
stop_26_90448_75_84388,TRANS,"TRANSPORT NGR",26.904483,75.843881
stop_26_91326_75_83322,GTG,"GHAT GATE",26.913265,75.833217
stop_26_91527_75_82356,SGG,"SANGANERI GATE",26.915266,75.823561
stop_26_91516_75_81691,AJG,"AJMERI GATE",26.915164,75.816905
stop_26_91379_75_80880,PHI,"PANCH BATI",26.91379,75.8088
stop_26_91829_75_80142,GPO,"GPO",26.918289,75.80142
stop_26_92571_75_80761,CDE,"CHANDPOLE",26.925706,75.807614
stop_26_92411_75_80389,MYANK,"MAYANK",26.924112,75.803886
stop_26_93079_75_80113,PRH,"POWER HOUSE",26.93079,75.80113
stop_26_93285_75_79746,PTORY,"PITAL FACTORY",26.932849,75.797464
stop_26_93515_75_79327,TBHOS,"T.B.HOSPITAL",26.93515,75.79327
stop_26_93917_75_78607,PPACH,"PANI PACH",26.93917,75.786074
stop_26_93977_75_77739,26,"AMBA BARI",26.939767,75.777386
stop_26_93995_75_77475,CUA,"CHOMU PULIYA",26.939954,75.774751
stop_26_94602_75_77315,BETAN,"BHAWANI NIKETAN",26.94602,75.773153
stop_26_95560_75_77143,DLAJI,"DHER KA BALAJI",26.955601,75.771428
stop_26_97059_75_77237,VKI1,"VKI NO. 1",26.970594,75.772367
stop_26_98240_75_77420,VK8,"VKI NO. 8",26.982395,75.774204
stop_26_98652_75_77312,VKI9,"VKI NO. 9",26.986521,75.773124
stop_26_98635_75_78347,RD9CN,"RD 9 CANTEEN",26.986348,75.78347
stop_26_98850_75_78409,VKI14,"VKI NO. 14",26.988496,75.784095
stop_26_99784_75_79503,VKI17,"VKI NO. 17",26.997837,75.795031
stop_26_99929_75_79507,VKI17,"VKI NO. 17",26.999292,75.795075
stop_26_99574_75_78689,VKI14,"VKI NO. 14",26.995742,75.786886
stop_26_98630_75_78365,RD9CN,"RD 9 CANTEEN",26.986301,75.783646
stop_26_98315_75_77417,VK8,"VKI NO. 8",26.983154,75.774175
stop_26_97913_75_77407,VKI5,"VKI NO. 5",26.979135,75.774074
stop_26_96626_75_77243,AKC,"ALKA CINEMA",26.96626,75.772428
stop_26_96076_75_77167,KEHOS,"KHETAN HOS",26.960756,75.771666
stop_26_94668_75_77329,BETAN,"BHAWANI NIKETAN",26.946682,75.773289
stop_26_94106_75_77371,CUA,"CHOMU PULIYA",26.941062,75.77371
stop_26_94006_75_77732,26,"AMBA BARI",26.940059,75.777323
stop_26_94028_75_78549,PPACH,"PANI PACH",26.940277,75.785489
stop_26_93283_75_79785,PTORY,"PITAL FACTORY",26.93283,75.79785
stop_26_93034_75_80191,PRH,"POWER HOUSE",26.930339,75.801908
stop_26_92899_75_80379,MYANK,"MAYANK",26.928988,75.803792
stop_26_92567_75_80776,CDE,"CHANDPOLE",26.925666,75.807755
stop_26_91774_75_80188,GPO,"GPO",26.917737,75.801883
stop_26_91626_75_81007,PHI,"PANCH BATI",26.916262,75.810074
stop_26_91649_75_81840,AJG,"AJMERI GATE",26.916492,75.818401
stop_26_91544_75_82350,SGG,"SANGANERI GATE",26.915436,75.823496
stop_26_91337_75_83335,GTG,"GHAT GATE",26.913372,75.833353
stop_26_90467_75_84403,TRANS,"TRANSPORT NGR",26.904672,75.844028
stop_26_80019_75_84018,DWP,"DWARKA PURI",26.80019,75.84018
stop_26_80685_75_83558,NRI,"NRI",26.806854,75.835585
stop_26_80439_75_83054,S16,"SECTOR 16",26.804393,75.830543
stop_26_80241_75_82645,BRM,"BHARO MANDIR",26.802409,75.82645
stop_26_79976_75_82156,SEC11,"SECTOR 11",26.799763,75.821558
stop_26_80068_75_82010,SECTO,"SECTOR 10",26.800684,75.820096
stop_26_79667_75_81406,SEC8,"SECTOR 8",26.796671,75.814064
stop_26_80384_75_80832,SEC5,"SECTOR 5",26.80384,75.80832
stop_26_80750_75_80550,SECT3,"SECTOR 3",26.807502,75.805502
stop_26_81084_75_80294,GHA,"GOSHALA",26.810837,75.802941
stop_26_81557_75_79952,BOOKI,"BOOKING",26.815571,75.799521
stop_26_81931_75_79643,SGT,"SANGANER THANA",26.81931,75.796429
stop_26_82540_75_79450,KNAGA,"KALYAN NAGAR",26.8253998,75.794496
stop_26_82899_75_79425,RMN,"RAM MANDIR",26.8289865,75.794249
stop_26_83576_75_79404,RMR,"TARO KI KOOT",26.8357642,75.794043
stop_26_83714_75_79372,CPLEX,"CITY PLEX",26.837143,75.793722
stop_26_85104_75_79411,DGP,"DURGAPURA",26.851037,75.794114
stop_26_85736_75_79517,MNAGA,"MAHAVEER NAGAR",26.857361,75.795166
stop_26_86629_75_79643,JHC,"GOPALPURA",26.866287,75.796431
stop_26_87170_75_79714,SKGAT,"SAYEED KA GATTA",26.871703,75.797137
stop_26_87946_75_79885,GLA,"TONK PHATAK",26.879461,75.798852
stop_26_88353_75_80071,SBM,"SABJI MANDI",26.883533,75.800709
stop_26_88716_75_80258,GNMOD,"GANDHI NAGAR MOD",26.887164,75.802581
stop_26_89165_75_80580,TKP,"LAL KOTHI",26.891646,75.805797
stop_26_89644_75_80987,RBC,"RAMBAGH CIRCLE",26.896438,75.809871
stop_26_89894_75_81179,NSCIR,"NARAYAN SINGH CIRCLE",26.89894,75.81179
stop_26_90718_75_81505,RBH,"SMS HOSPITAL",26.907179,75.815054
stop_26_91157_75_81578,MLAGE,"MAHARANI COLLAGE",26.911567,75.815782
stop_26_91491_75_81665,AJG,"AJMERI GATE",26.914906,75.816649
stop_26_91545_75_82361,SGG,"SANGANERI GATE",26.915446,75.823606
stop_26_91343_75_83329,GTG,"GHAT GATE",26.913428,75.83329
stop_26_90445_75_84383,TRANS,"TRANSPORT NGR",26.90445,75.84383
stop_26_90401_75_84402,TRANS,"TRANSPORT NGR",26.90401,75.84402
stop_26_91339_75_83258,GTG,"GHAT GATE",26.91339,75.832579
stop_26_91526_75_82341,SGG,"SANGANERI GATE",26.915261,75.82341
stop_26_91488_75_81689,AJG,"AJMERI GATE",26.914876,75.816893
stop_26_91139_75_81596,MLAGE,"MAHARANI COLLAGE",26.911388,75.815962
stop_26_90729_75_81528,RBH,"SMS HOSPITAL",26.907292,75.815277
stop_26_89981_75_81271,NSCIR,"NARAYAN SINGH CIRCLE",26.899811,75.812709
stop_26_89624_75_81001,RBC,"RAMBAGH CIRCLE",26.896242,75.810006
stop_26_89145_75_80594,TKP,"LAL KOTHI",26.891448,75.805944
stop_26_88701_75_80274,GNMOD,"GANDHI NAGAR MOD",26.887006,75.802742
stop_26_88353_75_80097,SBM,"SABJI MANDI",26.88353,75.800975
stop_26_87944_75_79911,GLA,"TONK PHATAK",26.879443,75.799109
stop_26_87172_75_79736,SKGAT,"SAYEED KA GATTA",26.87172,75.797361
stop_26_86631_75_79663,JHC,"GOPALPURA",26.866313,75.796631
stop_26_86263_75_79616,MNAGA,"MAHAVEER NAGAR",26.862625,75.796158
stop_26_84982_75_79412,DGP,"DURGAPURA",26.849824,75.79412
stop_26_83726_75_79396,CPLEX,"CITY PLEX",26.8372631,75.793964
stop_26_83577_75_79394,RMR,"TARO KI KOOT",26.835766,75.793935
stop_26_82901_75_79429,RMN,"RAM MANDIR",26.829007,75.794291
stop_26_82540_75_79471,KNAGA,"KALYAN NAGAR",26.8253998,75.794713
stop_26_81870_75_79736,SGT,"SANGANER THANA",26.818701,75.797358
stop_26_81620_75_79931,BOOKI,"BOOKING",26.816196,75.799308
stop_26_80862_75_80487,GHA,"GOSHALA",26.808625,75.804867
stop_26_80731_75_80583,SECT3,"SECTOR 3",26.807312,75.805826
stop_26_80374_75_80848,SEC5,"SECTOR 5",26.803739,75.80848
stop_26_79846_75_81255,SEC8,"SECTOR 8",26.798457,75.812548
stop_26_80076_75_82003,SECTO,"SECTOR 10",26.800762,75.820032
stop_26_80246_75_82619,BRM,"BHARO MANDIR",26.802462,75.826186
stop_26_80441_75_83030,S16,"SECTOR 16",26.804413,75.830296
stop_26_80690_75_83651,NRI,"NRI",26.806899,75.836514
stop_26_80040_75_84032,DWP,"DWARKA PURI",26.8004,75.84032
stop_26_91451_75_81681,AJG,"AJMERI GATE",26.91451,75.81681
stop_26_89912_75_81220,NSCIR,"NARAYAN SINGH CIRCLE",26.899118,75.812195
stop_26_89646_75_80993,RBC,"RAMBAGH CIRCLE",26.896461,75.809931
stop_26_89158_75_80605,TKP,"LAL KOTHI",26.891583,75.806054
stop_26_88707_75_80277,GNMOD,"GANDHI NAGAR MOD",26.887072,75.802769
stop_26_87932_75_79897,GLA,"TONK PHATAK",26.87932,75.79897
stop_26_86628_75_79669,JHC,"GOPALPURA",26.86628,75.79669
stop_26_85818_75_79550,MNAGA,"MAHAVEER NAGAR",26.85818,75.795496
stop_26_85130_75_79451,DGP,"DURGAPURA",26.851305,75.794511
stop_26_83819_75_79395,CPLEX,"CITY PLEX",26.838195,75.793955
stop_26_82919_75_79430,RMN,"RAM MANDIR",26.829186,75.794295
stop_26_82552_75_79468,KNAGA,"KALYAN NAGAR",26.825523,75.794681
stop_26_81868_75_79626,SGT,"SANGANER THANA",26.818679,75.79626
stop_26_81875_75_78341,STADI,"STADIUM",26.818748,75.783407
stop_26_81575_75_78425,SGR,"SANGANER",26.81575,75.78425
stop_26_81567_75_78413,SGR,"SANGANER",26.815668,75.784128
stop_26_81951_75_79629,SGT,"SANGANER THANA",26.819515,75.796289
stop_26_82554_75_79446,KNAGA,"KALYAN NAGAR",26.825542,75.794458
stop_26_82917_75_79408,RMN,"RAM MANDIR",26.829166,75.794085
stop_26_83810_75_79369,RMR,"TARO KI KOOT",26.838104,75.793693
stop_26_85107_75_79411,DGP,"DURGAPURA",26.851072,75.794113
stop_26_85729_75_79513,MNAGA,"MAHAVEER NAGAR",26.857293,75.795128
stop_26_86574_75_79633,JHC,"GOPALPURA",26.865743,75.796327
stop_26_87980_75_79895,GLA,"TONK PHATAK",26.879803,75.798949
stop_26_88360_75_80074,SBM,"SABJI MANDI",26.883596,75.800741
stop_26_88777_75_80289,GNMOD,"GANDHI NAGAR MOD",26.887768,75.802888
stop_26_89114_75_80534,TKP,"LAL KOTHI",26.891138,75.805337
stop_26_89662_75_80997,RBC,"RAMBAGH CIRCLE",26.896616,75.809966
stop_26_89924_75_81196,NSCIR,"NARAYAN SINGH CIRCLE",26.899235,75.811962
stop_26_91492_75_81668,AJG,"AJMERI GATE",26.914923,75.816676
stop_26_92466_75_81801,COPAR,"CHOTI CHOPAR",26.924663,75.818014
stop_26_83019_75_80560,AIR,"AIRPORT",26.830189,75.805596
stop_26_84163_75_80835,MAGAR,"MALVIYA NAGAR",26.841631,75.808349
stop_26_84667_75_80950,MAL10,"SEC-10 MALVIYA NGR",26.846669,75.809503
stop_26_84555_75_81292,MAL11,"SEC-11 MALVIYA NGR",26.845552,75.812917
stop_26_84262_75_81530,SEC15,"SECTOR 15",26.84262,75.815303
stop_26_84686_75_81712,MAL3,"SEC-3 MALVIYA NGR",26.846861,75.817117
stop_26_85155_75_81851,SECT2,"SECTOR 2",26.851552,75.81851
stop_26_85584_75_82014,KEMOD,"KELGIRI MOD",26.85584,75.820139
stop_26_85746_75_81408,HMARG,"HARI MARG",26.857462,75.814076
stop_26_85901_75_80957,PMARG,"PRADHAN MARG",26.859014,75.809572
stop_26_86273_75_80679,SAIRY,"SARAS DAIRY",26.862732,75.806787
stop_26_86560_75_80744,MNIT,"MNIT",26.865604,75.807439
stop_26_87396_75_79936,GN,"GANDHI NAGAR",26.873963,75.799359
stop_26_89105_75_80531,TKP,"LAL KOTHI",26.89105,75.805313
stop_26_90691_75_81507,RBH,"SMS HOSPITAL",26.90691,75.81507
stop_26_91154_75_81580,MLAGE,"MAHARANI COLLAGE",26.911539,75.815803
stop_26_91632_75_80989,PHI,"PANCH BATI",26.916321,75.809892
stop_26_91676_75_80072,GPO,"GPO",26.91676,75.80072
stop_26_92201_75_79368,KHAK,"KHAKSHA KHOTI",26.922014,75.793676
stop_26_92679_75_79190,COLLE,"COLLECTORATE",26.926786,75.791901
stop_26_94278_75_76263,LCE,"LATA CIRCLE",26.94278,75.76263
stop_26_94304_75_75111,PMITI,"PANCHAYAT SAMITI",26.94304,75.75111
stop_26_94331_75_74879,MEDIC,"MEDICIAL CENTRE",26.943307,75.74879
stop_26_94372_75_74658,BORIN,"BORING ROAD",26.943722,75.746575
stop_26_94430_75_74379,KC,"KANTA CIRCLE",26.944297,75.743791
stop_26_94072_75_74320,RAM,"RAM NAGAR",26.940721,75.743195
stop_26_93426_75_74331,LALMA,"LAL MANDIR",26.934256,75.743306
stop_26_93278_75_73033,KPIYA,"KHIRNI PHATAK PULIYA",26.932782,75.730329
stop_26_94077_75_74318,RAM,"RAM NAGAR",26.940771,75.743182
stop_26_94434_75_74481,KC,"KANTA CIRCLE",26.944343,75.74481
stop_26_94375_75_74708,BORIN,"BORING ROAD",26.943749,75.747084
stop_26_94340_75_74879,MEDIC,"MEDICIAL CENTRE",26.943404,75.748791
stop_26_94316_75_75111,PMITI,"PANCHAYAT SAMITI",26.943161,75.751114
stop_26_94292_75_76240,LCE,"LATA CIRCLE",26.942925,75.762402
stop_26_94049_75_77211,CUA,"CHOMU PULIYA",26.940494,75.772115
stop_26_93854_75_78595,PPACH,"PANI PACH",26.938543,75.785954
stop_26_93223_75_78491,CKA,"CHINKARA",26.932228,75.784909
stop_26_92599_75_79364,COLLE,"COLLECTORATE",26.925994,75.793636
stop_26_92212_75_79381,KHAK,"KHAKSHA KHOTI",26.922117,75.793813
stop_26_91778_75_80184,GPO,"GPO",26.917785,75.801839
stop_26_91172_75_81600,MLAGE,"MAHARANI COLLAGE",26.911716,75.816004
stop_26_90690_75_81522,RBH,"SMS HOSPITAL",26.906901,75.815218
stop_26_89885_75_81192,NSCIR,"NARAYAN SINGH CIRCLE",26.898853,75.811924
stop_26_89640_75_81006,RBC,"RAMBAGH CIRCLE",26.896401,75.810065
stop_26_89156_75_80592,TKP,"LAL KOTHI",26.89156,75.80592
stop_26_88356_75_80095,SBM,"SABJI MANDI",26.883559,75.80095
stop_26_87464_75_79941,GN,"GANDHI NAGAR",26.874643,75.799413
stop_26_86621_75_80786,MNIT,"MNIT",26.866214,75.807858
stop_26_86281_75_80696,SAIRY,"SARAS DAIRY",26.862808,75.806955
stop_26_85935_75_80912,PMARG,"PRADHAN MARG",26.859345,75.809123
stop_26_85769_75_81378,HMARG,"HARI MARG",26.857692,75.813781
stop_26_85586_75_82043,KEMOD,"KELGIRI MOD",26.855864,75.820429
stop_26_85152_75_81847,SECT2,"SECTOR 2",26.851522,75.818467
stop_26_84215_75_81422,SEC15,"SECTOR 15",26.842148,75.814215
stop_26_84554_75_81289,MAL11,"SEC-11 MALVIYA NGR",26.845543,75.812892
stop_26_84662_75_80963,MAL10,"SEC-10 MALVIYA NGR",26.846616,75.809628
stop_26_84164_75_80838,MAGAR,"MALVIYA NAGAR",26.841645,75.808377
stop_26_93112_75_73104,KPIYA,"KHIRNI PHATAK PULIYA",26.931118,75.731043
stop_26_92023_75_73055,PLIYA,"PANCHAYALA PULIYA",26.920234,75.730555
stop_26_91520_75_73001,BMIYA,"BAJRI MANDI PULIYA",26.9152,75.730005
stop_26_91094_75_72956,KLACE,"KARNI PLACE",26.91094,75.729555
stop_26_90563_75_72894,GIT,"GANDHI PATH",26.905627,75.728944
stop_26_90229_75_72958,CLIYA,"CHITRKOOT PULIYA",26.902291,75.72958
stop_26_89515_75_73385,HAP,"HEERA PURA",26.895148,75.733854
stop_26_88406_75_74015,SUNDA,"SUNDAR NAGAR",26.884057,75.740146
stop_26_88179_75_74177,NTPNA,"NEW TP NAGAR",26.881787,75.741768
stop_26_88000_75_74307,DKATA,"DHARAM KATA",26.880002,75.743073
stop_26_88035_75_75809,GANGA,"GANGA JAMUNA",26.880353,75.758092
stop_26_88069_75_76714,GKTHA,"GUJAR KI THADI",26.880687,75.767142
stop_26_87740_75_77291,MNMOD,"MAHESH NAGAR MOD",26.877398,75.772908
stop_26_87351_75_77682,SURYA,"SURYA NGR",26.873509,75.776823
stop_26_87230_75_77868,RIDHI,"RIDHI SIDHI",26.8723,75.77868
stop_26_86841_75_78415,TNAGA,"TRIVENI NAGAR",26.868415,75.784154
stop_26_86263_75_79585,MNAGA,"MAHAVEER NAGAR",26.862633,75.795849
stop_26_87169_75_79717,SKGAT,"SAYEED KA GATTA",26.871692,75.797165
stop_26_87941_75_79887,GLA,"TONK PHATAK",26.879409,75.798868
stop_26_88352_75_80076,SBM,"SABJI MANDI",26.883524,75.800756
stop_26_89900_75_81716,TRILE,"TRIMURTI CIRCLE",26.898997,75.817164
stop_26_89963_75_81966,DSCLE,"DHARAM SINGH CIRCLE",26.899634,75.819659
stop_26_89663_75_82707,RPARK,"RAJA PARK",26.896626,75.827066
stop_26_89919_75_83339,BHANA,"BARAF KHANA",26.899192,75.833394
stop_26_90253_75_83672,MITAL,"MANTAL HOSPITAL",26.902533,75.836723
stop_26_90637_75_84046,TPNMO,"TP NAGAR MOD",26.906365,75.840457
stop_26_90455_75_84430,TRANS,"TRANSPORT NGR",26.90455,75.844302
stop_26_90630_75_84064,TPNMO,"TP NAGAR MOD",26.906299,75.840636
stop_26_89915_75_83339,BHANA,"BARAF KHANA",26.899145,75.833389
stop_26_89693_75_82710,RPARK,"RAJA PARK",26.89693,75.827104
stop_26_89957_75_81885,DSCLE,"DHARAM SINGH CIRCLE",26.899568,75.81885
stop_26_89899_75_81733,TRILE,"TRIMURTI CIRCLE",26.898995,75.817335
stop_26_89919_75_81220,NSCIR,"NARAYAN SINGH CIRCLE",26.899193,75.812197
stop_26_89632_75_81002,RBC,"RAMBAGH CIRCLE",26.896316,75.810023
stop_26_88721_75_80281,GNMOD,"GANDHI NAGAR MOD",26.887209,75.802811
stop_26_88493_75_80170,SBM,"SABJI MANDI",26.88493,75.801702
stop_26_87961_75_79913,GLA,"TONK PHATAK",26.879611,75.799125
stop_26_87179_75_79738,SKGAT,"SAYEED KA GATTA",26.87179,75.79738
stop_26_86636_75_79665,GPMOD,"GOPAL PURA MOD",26.866361,75.796649
stop_26_86248_75_79511,MNAGA,"MAHAVEER NAGAR",26.862479,75.795105
stop_26_86882_75_78356,TNAGA,"TRIVENI NAGAR",26.868824,75.783563
stop_26_87248_75_77794,RIDHI,"RIDHI SIDHI",26.872481,75.777936
stop_26_87450_75_77560,SURYA,"SURYA NGR",26.874505,75.775602
stop_26_87742_75_77252,MNMOD,"MAHESH NAGAR MOD",26.877418,75.772516
stop_26_88021_75_76526,GKTHA,"GUJAR KI THADI",26.880206,75.76526
stop_26_87945_75_76168,GANGA,"GANGA JAMUNA",26.87945,75.761679
stop_26_87933_75_74363,DKATA,"DHARAM KATA",26.879333,75.743631
stop_26_88168_75_74155,NTPNA,"NEW TP NAGAR",26.881676,75.741549
stop_26_88395_75_74000,SUNDA,"SUNDAR NAGAR",26.883945,75.7400031
stop_26_89526_75_73326,HAP,"HEERA PURA",26.895257,75.733261
stop_26_90208_75_72908,CLIYA,"CHITRKOOT PULIYA",26.902082,75.729077
stop_26_90587_75_72850,GIT,"GANDHI PATH",26.905866,75.728502
stop_26_91140_75_72911,KLACE,"KARNI PLACE",26.911399,75.729105
stop_26_91524_75_72955,BMIYA,"BAJRI MANDI PULIYA",26.915242,75.72955
stop_26_92017_75_72999,PLIYA,"PANCHAYALA PULIYA",26.920166,75.729987
stop_26_93211_75_73029,KPIYA,"KHIRNI PHATAK PULIYA",26.932115,75.730293
stop_26_84136_75_77009,AGARW,"AGARWAL FARM",26.841362,75.770089
stop_26_84340_75_77758,VIJAY,"VIJAY PATH",26.8434,75.77758
stop_26_83936_75_79404,MFARM,"MAHARANI FARM",26.839364,75.794037
stop_26_85108_75_79420,DGP,"DURGAPURA",26.85108,75.794199
stop_26_86593_75_79636,SKGAT,"SAYEED KA GATTA",26.865931,75.796364
stop_26_87939_75_79885,GLA,"TONK PHATAK",26.879394,75.798846
stop_26_88686_75_80242,GNMOD,"GANDHI NAGAR MOD",26.88686,75.80242
stop_26_91454_75_81656,AJG,"AJMERI GATE",26.914543,75.816563
stop_26_92417_75_80403,MYANK,"MAYANK",26.92417,75.80403
stop_26_93272_75_79777,PTORY,"PITAL FACTORY",26.932715,75.797773
stop_26_93949_75_80134,PKTAN,"PANI KI TANKI",26.939492,75.801336
stop_26_94157_75_80026,MKCHA,"MOCHIYO KI CHABIL",26.941573,75.800264
stop_26_94592_75_79803,SNAGA,"SHASTRI NAGAR",26.945924,75.798028
stop_26_95435_75_79354,RSCHO,"RESIDENCY SCHOOL",26.954351,75.793539
stop_26_95821_75_79104,VNAGA,"VIDHYADHAR NAGAR",26.958209,75.791045
stop_26_95984_75_78610,MAMOD,"MANDIR MOD",26.959843,75.786103
stop_26_96257_75_78041,CRMOD,"CROSS ROAD MOD",26.96257,75.78041
stop_26_96280_75_77993,VTHAN,"VIDHYADHAR THANA",26.9628,75.779927
stop_26_96699_75_77245,AKC,"ALKA CINEMA",26.96699,75.77245
stop_26_97027_75_76594,MURLI,"MURLIPURA",26.970274,75.765938
stop_26_96840_75_75450,DKP,"DADI KA PHATAK",26.9684,75.7545
stop_26_97029_75_76044,KPLAC,"KEDIA PALACE",26.970292,75.7604361
stop_26_97030_75_76472,MURLI,"MURLIPURA",26.970297,75.764717
stop_26_97094_75_77167,VKI1,"VKI NO. 1",26.970939,75.771666
stop_26_96641_75_77276,AKC,"ALKA CINEMA",26.966409,75.772763
stop_26_96306_75_77981,VTHAN,"VIDHYADHAR THANA",26.963057,75.779809
stop_26_96140_75_78330,CRMOD,"CROSS ROAD MOD",26.961403,75.783296
stop_26_95989_75_78640,MAMOD,"MANDIR MOD",26.959893,75.786398
stop_26_95838_75_79085,VNAGA,"VIDHYADHAR NAGAR",26.958379,75.790849
stop_26_95453_75_79362,RSCHO,"RESIDENCY SCHOOL",26.954533,75.79362
stop_26_94549_75_79851,SNAGA,"SHASTRI NAGAR",26.945485,75.798508
stop_26_94141_75_80050,MKCHA,"MOCHIYO KI CHABIL",26.941412,75.800496
stop_26_93911_75_80230,PKTAN,"PANI KI TANKI",26.939114,75.802299
stop_26_93036_75_80185,PRH,"POWER HOUSE",26.930361,75.801854
stop_26_92894_75_80388,MYANK,"MAYANK",26.928939,75.803885
stop_26_92701_75_80812,CDE,"CHANDPOLE",26.92701,75.808119
stop_26_91784_75_80174,GPO,"GPO",26.91784,75.801736
stop_26_91499_75_81687,AJG,"AJMERI GATE",26.91499,75.816869
stop_26_90757_75_81530,RBH,"SMS HOSPITAL",26.907565,75.815297
stop_26_89925_75_81225,NSCIR,"NARAYAN SINGH CIRCLE",26.899248,75.812251
stop_26_89454_75_80853,RBC,"RAMBAGH CIRCLE",26.89454,75.808531
stop_26_88530_75_80186,SBM,"SABJI MANDI",26.885303,75.801861
stop_26_85826_75_79547,MNAGA,"MAHAVEER NAGAR",26.858265,75.795468
stop_26_84996_75_79413,DGP,"DURGAPURA",26.849958,75.794129
stop_26_85230_75_78267,MFARM,"MAHARANI FARM",26.852295,75.782669
stop_26_84785_75_76995,VIJAY,"VIJAY PATH",26.84785,75.76995
stop_26_84145_75_77025,AGARW,"AGARWAL FARM",26.841452,75.770247
stop_26_87078_75_69744,BKA,"BHAKROTA",26.87078,75.69744
stop_26_87507_75_70865,KHP,"KESHAV PURA",26.875072,75.708655
stop_26_87825_75_71567,KNR,"KAMLA NEHRU NAGAR",26.878247,75.715673
stop_26_87382_75_72244,NVHAR,"NARAIN VIHAR",26.873821,75.722436
stop_26_87572_75_72556,GAMOD,"GAJSINGHPURA MOD",26.875716,75.725556
stop_26_87580_75_72560,VAGAR,"VARDHMAN NAGAR",26.8758,75.7256
stop_26_87913_75_73317,BADAR,"BADARWAS",26.879132,75.733169
stop_26_87952_75_75007,MMETR,"MANSAROWER METRO",26.87952,75.75007
stop_26_86972_75_75099,SWPM,"SWARN PATH MOD",26.869719,75.750992
stop_26_86330_75_75419,RATPM,"RAJAT PATH MOD",26.863303,75.754192
stop_26_85685_75_75828,GOLYS,"GOLYAWAS",26.856847,75.758284
stop_26_84695_75_76451,VPTM,"VIJAY PATH MOD",26.846953,75.764511
stop_26_83910_75_76803,AFMOD,"AGARWAL FARM MOD",26.839104,75.768027
stop_26_82944_75_77456,SANRI,"SANGANER RIICO",26.829441,75.774557
stop_26_81944_75_78181,CHORD,"CHORDIA PETROL PAMP",26.819442,75.781807
stop_26_81892_75_78364,STADI,"STADIUM",26.81892,75.78364
stop_26_81922_75_79638,SGT,"SANGANER THANA",26.8192174,75.796378
stop_26_80879_75_80576,GHA,"GOSHALA",26.80879,75.80576
stop_26_80900_75_80340,SECT3,"SECTOR 3",26.809,75.8034
stop_26_79650_75_81395,SEC8,"SECTOR 8",26.7965,75.813954
stop_26_78548_75_82257,IAG,"INDIA GATE",26.78548,75.82257
stop_26_78116_75_82885,PRC,"PODAR CIRCLE",26.781158,75.828846
stop_26_77869_75_84186,AMR,"CHATRALA CIRCLE",26.778695,75.841858
stop_26_76902_75_84644,KKI,"GONER PHATAK",26.769016,75.84644
stop_26_77031_75_85289,JML,"MGH",26.770306,75.852889
stop_26_81110_75_80279,GHA,"GOSHALA",26.811104,75.802792
stop_26_81981_75_78146,CHORD,"CHORDIA PETROL PAMP",26.819813,75.781456
stop_26_82955_75_77429,SANRI,"SANGANER RIICO",26.82955,75.774289
stop_26_83869_75_76804,AFMOD,"AGARWAL FARM MOD",26.83869,75.768036
stop_26_84669_75_76444,VPTM,"VIJAY PATH MOD",26.846687,75.764437
stop_26_85673_75_75807,GOLYS,"GOLYAWAS",26.856729,75.758072
stop_26_86314_75_75400,RATPM,"RAJAT PATH MOD",26.86314,75.753997
stop_26_86972_75_75071,SWPM,"SWARN PATH MOD",26.869725,75.750712
stop_26_87959_75_74226,BADAR,"BADARWAS",26.87959,75.742262
stop_26_87888_75_73314,VAGAR,"VARDHMAN NAGAR",26.87888,75.733145
stop_26_87557_75_72557,GAMOD,"GAJSINGHPURA MOD",26.87557,75.725565
stop_26_87366_75_72252,NVHAR,"NARAIN VIHAR",26.873664,75.722517
stop_26_87826_75_71651,KNR,"KAMLA NEHRU NAGAR",26.878264,75.716508
stop_26_87543_75_71078,KHP,"KESHAV PURA",26.875433,75.710777
stop_26_98223_75_68399,LNDP,"LALCHANDPURA",26.982227,75.68399
stop_26_97782_75_69523,GTM,"GLABA BABA TEMPLE MODE",26.97782,75.695233
stop_26_97495_75_70185,BWN,"BHAGWATI NAGAR",26.974946,75.701855
stop_26_97428_75_70656,MS,"MILITRY STATION",26.974278,75.70656
stop_26_97222_75_71135,GLR,"GOVINDPURA LINK ROAD",26.972216,75.711348
stop_26_97172_75_71391,NIWAR,"NIWARU",26.97172,75.71391
stop_26_96872_75_71668,AMH,"AMBE HOSPITAL",26.968723,75.716683
stop_26_96346_75_72830,NATH,"NATH JI KI",26.96346,75.7283
stop_26_95922_75_73574,BY PA,"BY PASS",26.95922,75.73574
stop_26_95744_75_73939,NETA,"NETA KI CHAKI",26.957444,75.739389
stop_26_95643_75_74095,LAXMI,"LAXMI NAGAR",26.956434,75.740951
stop_26_95460_75_74552,HEERB,"HEERA BADI",26.9546,75.74552
stop_26_95309_75_75017,SIR,"SHALIMAR",26.953085,75.750172
stop_26_94473_75_74414,KANTA,"KANTA",26.944733,75.74414
stop_26_93563_75_79280,TBHOS,"T.B.HOSPITAL",26.935625,75.792798
stop_26_91840_75_84855,GALTG,"GALTA GATE",26.9184,75.84855
stop_26_93080_75_84505,EID,"EIDGAH",26.930799,75.845052
stop_26_93879_75_84677,KHM,"KHOLE KE HANUMAN JI",26.93879,75.846766
stop_26_96864_75_71680,AMH,"AMBE HOSPITAL",26.968643,75.716802
stop_26_90725_75_81526,MLAGE,"MAHARANI COLLAGE",26.907248,75.815257
stop_26_89911_75_81214,RBH,"SMS HOSPITAL",26.89911,75.812139
stop_26_89520_75_80909,NSCIR,"NARAYAN SINGH CIRCLE",26.895199,75.809087
stop_26_89179_75_80623,RBC,"RAMBAGH CIRCLE",26.891787,75.806228
stop_26_87947_75_79909,GNMOD,"GANDHI NAGAR MOD",26.879469,75.79909
stop_26_87342_75_79752,GLA,"TONK PHATAK",26.873416,75.797522
stop_26_84969_75_79404,MNAGA,"MAHAVEER NAGAR",26.84969,75.79404
stop_26_84218_75_79375,DGP,"DURGAPURA",26.842181,75.793745
stop_26_81880_75_79729,RMN,"RAM MANDIR",26.818795,75.797287
stop_26_81575_75_79960,SGT,"SANGANER THANA",26.81575,75.799596
stop_26_81088_75_80315,BOOKI,"BOOKING",26.810876,75.803149
stop_26_80289_75_80912,SECT3,"SECTOR 3",26.802887,75.809124
stop_26_79643_75_81405,SEC5,"SECTOR 5",26.796431,75.814048
stop_26_78492_75_82276,SEC8,"SECTOR 8",26.784919,75.82276
stop_26_78015_75_82637,IAG,"INDIA GATE",26.780149,75.826373
stop_26_76895_75_83537,SPR,"SITAPURA",26.76895,75.83537
stop_26_76583_75_83856,12M,"12 MILE",26.765835,75.838564
stop_26_77032_75_85255,GONMD,"GONER MODE",26.77032,75.852547
stop_26_77719_75_87926,JML,"MGH",26.777193,75.879256
stop_26_77583_75_88851,VIDHA,"VIDHANI",26.77583,75.888507
stop_26_77614_75_88545,POORN,"POORNIMA UNIVERSITY",26.776141,75.88545
stop_26_78580_75_91108,GAYTR,"GAYATRI MANDIR",26.785804,75.911079
stop_26_78576_75_91121,GNR,"GONER",26.785755,75.911215
stop_26_77913_75_90991,GNR,"GONER",26.779134,75.909911
stop_26_77744_75_90276,GAYTR,"GAYATRI MANDIR",26.777439,75.90276
stop_26_77574_75_88852,POORN,"POORNIMA UNIVERSITY",26.775743,75.888519
stop_26_77629_75_88336,VIDHA,"VIDHANI",26.776291,75.883361
stop_26_76577_75_83832,GONMD,"GONER MODE",26.765767,75.838318
stop_26_76920_75_83500,12M,"12 MILE",26.769204,75.835001
stop_26_77993_75_82633,SPR,"SITAPURA",26.779928,75.826333
stop_26_78455_75_82285,IAG,"INDIA GATE",26.784553,75.822852
stop_26_79651_75_81380,SEC8,"SECTOR 8",26.796507,75.813799
stop_26_80408_75_80802,SEC5,"SECTOR 5",26.804084,75.808021
stop_26_82914_75_79410,RMN,"RAM MANDIR",26.829143,75.794102
stop_26_83652_75_79377,RMR,"TARO KI KOOT",26.836521,75.793772
stop_26_87345_75_79734,SKGAT,"SAYEED KA GATTA",26.873447,75.79734
stop_26_88775_75_80287,GNMOD,"GANDHI NAGAR MOD",26.887747,75.802874
stop_26_89475_75_80850,RBC,"RAMBAGH CIRCLE",26.89475,75.808503
stop_26_90712_75_81508,RBH,"SMS HOSPITAL",26.907118,75.815079
stop_26_91484_75_81665,MLAGE,"MAHARANI COLLAGE",26.914844,75.81665
stop_26_91673_75_81733,AJG,"AJMERI GATE",26.91673,75.81733
stop_26_84623_76_05135,BSI,"BASSI",26.846227,76.051351
stop_26_85683_76_05338,BIK,"BASSI CHAK",26.856834,76.053379
stop_26_85610_76_02073,BAD,"BANADA MOD",26.856099,76.020728
stop_26_85494_76_00964,KEI,"KHEDI",26.854937,76.009638
stop_26_85657_76_00334,KHA,"KHOKHAWLA",26.856572,76.003336
stop_26_86242_75_98141,DMA,"DAYARAMPURA",26.862423,75.98141
stop_26_87423_75_94921,KOA,"KANOTA",26.874234,75.949207
stop_26_87764_75_92955,BRA,"BAGARANA",26.877643,75.929554
stop_26_88171_75_91016,CIN,"CHUNGI NAKA",26.88171,75.910164
stop_26_88377_75_90028,BWI,"BAWDI",26.883767,75.900278
stop_26_88610_75_89177,BALTI,"BALTI FACTOR",26.886096,75.891769
stop_26_88810_75_88418,PMN,"PREM NAGAR",26.888099,75.88418
stop_26_88896_75_88077,MIK,"MURGI KHANA",26.888959,75.880767
stop_26_88970_75_87769,KNY,"KHANIYA",26.889698,75.877688
stop_26_90362_75_84381,TRANS,"TRANSPORT NGR",26.903624,75.843814
stop_26_91529_75_82352,SGG,"SANGANERI GATE",26.915286,75.823523
stop_26_91146_75_81600,MLAGE,"MAHARANI COLLAGE",26.911455,75.815999
stop_26_89892_75_79963,HIGHC,"HIGH COURT",26.898923,75.799631
stop_26_90256_75_78636,22G,"22 GODAM",26.902563,75.786359
stop_26_90148_75_77201,SAL,"SODALA",26.901484,75.772007
stop_26_89851_75_75909,PIC,"PURANI CHUNGI",26.898509,75.759094
stop_26_90512_75_74583,GIT,"GANDHI PATH",26.905118,75.745831
stop_26_91102_75_74362,AMARP,"AMARPALI CIRCLE",26.911019,75.743624
stop_26_91513_75_72950,BMIYA,"BAJRI MANDI PULIYA",26.91513,75.7295
stop_26_92037_75_73672,TEGOR,"VAISHALI CIRCLE",26.920368,75.736716
stop_26_92358_75_74526,KTPA,"KHATIPURA",26.92358,75.745263
stop_26_93058_75_75052,JTN,"JASWANT NAGAR",26.930579,75.75052
stop_26_93664_75_75667,JTA,"JHOTWARA",26.936642,75.756669
stop_26_94015_75_77323,CUA,"CHOMU PULIYA",26.940153,75.773235
stop_26_94177_75_76260,JTA,"JHOTWARA",26.941767,75.7626
stop_26_93059_75_75056,JTN,"JASWANT NAGAR",26.930586,75.750564
stop_26_92381_75_74542,KTPA,"KHATIPURA",26.923814,75.745422
stop_26_91544_75_74362,TEGOR,"VAISHALI CIRCLE",26.9154435,75.743623
stop_26_91123_75_74381,AMARP,"AMARPALI CIRCLE",26.911226,75.743807
stop_26_90518_75_74563,GIT,"GANDHI PATH",26.905184,75.745631
stop_26_89897_75_75860,PIC,"PURANI CHUNGI",26.898969,75.758596
stop_26_90060_75_76980,SAL,"SODALA",26.900605,75.769804
stop_26_90278_75_78615,22G,"22 GODAM",26.902777,75.786147
stop_26_89909_75_79967,HIGHC,"HIGH COURT",26.899089,75.799665
stop_26_91172_75_81584,MLAGE,"MAHARANI COLLAGE",26.911719,75.815844
stop_26_90118_75_84409,TRANS,"TRANSPORT NGR",26.901181,75.844089
stop_26_89310_75_86711,KNY,"KHANIYA",26.893104,75.867112
stop_26_89095_75_87386,MIK,"MURGI KHANA",26.890953,75.873864
stop_26_88829_75_88415,PMN,"PREM NAGAR",26.888291,75.884145
stop_26_88633_75_89166,BALTI,"BALTI FACTOR",26.886328,75.891663
stop_26_88400_75_90018,BWI,"BAWDI",26.883997,75.900175
stop_26_88195_75_91010,CIN,"CHUNGI NAKA",26.881946,75.910097
stop_26_87789_75_92941,BRA,"BAGARANA",26.877888,75.929409
stop_26_87444_75_94866,KOA,"KANOTA",26.874436,75.948657
stop_26_86263_75_98149,DMA,"DAYARAMPURA",26.86263,75.981486
stop_26_85676_76_00324,KHA,"KHOKHAWLA",26.856757,76.003241
stop_26_85506_76_00964,KEI,"KHEDI",26.855055,76.00964
stop_26_85624_76_02057,BAD,"BANADA MOD",26.856243,76.020569
stop_26_85709_76_05325,BIK,"BASSI CHAK",26.857085,76.053247
stop_26_92773_75_80569,CDE,"CHANDPOLE",26.927733,75.805686
stop_26_93511_75_79327,TBHOS,"T.B.HOSPITAL",26.935114,75.79327
stop_26_93852_75_78785,PPACH,"PANI PACH",26.938518,75.787853
stop_26_93993_75_77465,CUA,"CHOMU PULIYA",26.939933,75.774648
stop_26_96075_75_77141,KEHOS,"KHETAN HOS",26.960746,75.771409
stop_26_96702_75_77224,AKC,"ALKA CINEMA",26.967022,75.772244
stop_26_97039_75_77238,VKI1,"VKI NO. 1",26.970388,75.772379
stop_26_99680_75_77080,VKI14,"VKI NO. 14",26.996797,75.770795
stop_27_02888_75_76876,TODI,"TODI",27.028878,75.768761
stop_27_05734_75_75315,RAJAW,"RAJAWAS",27.057342,75.75315
stop_27_07949_75_74656,MOTUK,"MOTA KA BAS",27.07949,75.746559
stop_27_10388_75_73500,RAMPU,"RAMPURA",27.10388,75.735004
stop_27_12259_75_73189,15JAI,"JAITPURA",27.122588,75.731887
stop_27_16862_75_72416,CHOMU,"CHOMU",27.168617,75.724161
stop_27_16806_75_72384,CHOMU,"CHOMU",27.16806,75.72384
stop_27_12366_75_73213,15JAI,"JAITPURA",27.12366,75.73213
stop_27_09921_75_73730,RAMPU,"RAMPURA",27.09921,75.7373
stop_27_07646_75_74747,MOTUK,"MOTA KA BAS",27.07646,75.74747
stop_27_06192_75_75157,RAJAW,"RAJAWAS",27.06192,75.75157
stop_26_89983_75_81264,RBH,"SMS HOSPITAL",26.899834,75.812638
stop_26_89158_75_80603,RBC,"RAMBAGH CIRCLE",26.891585,75.806032
stop_26_88688_75_80265,TKP,"LAL KOTHI",26.886879,75.802646
stop_26_87345_75_79752,GLA,"TONK PHATAK",26.873455,75.797517
stop_26_80847_75_80494,SGT,"SANGANER THANA",26.808472,75.804939
stop_26_80385_75_80839,GHA,"GOSHALA",26.803847,75.808387
stop_26_78150_75_82535,IAG,"INDIA GATE",26.781503,75.825346
stop_26_74988_75_85411,12M,"12 MILE",26.74988,75.85411
stop_26_74000_75_86386,BIA,"BILWA",26.74,75.86386
stop_26_73541_75_86832,RSI,"RADHA SWAMI",26.735407,75.868322
stop_26_72553_75_87572,NGY,"NAGALIYA",26.72553,75.87572
stop_26_70790_75_89499,NKR,"NANAKPURA",26.7079,75.89499
stop_26_67657_75_91245,SDA,"SHIVDASPURA",26.676572,75.912447
stop_26_64212_75_93332,YIA,"YARLIPURA",26.642116,75.933318
stop_26_59889_75_94808,STA,"SHITALA",26.59889,75.94808
stop_26_59908_75_94801,CKU,"CHAKSU",26.59908,75.948006
stop_26_64221_75_93320,STA,"SHITALA",26.642208,75.9332
stop_26_67656_75_91224,YIA,"YARLIPURA",26.676562,75.912244
stop_26_70793_75_89493,SDA,"SHIVDASPURA",26.707932,75.894932
stop_26_72556_75_87554,NKR,"NANAKPURA",26.725558,75.875537
stop_26_73546_75_86779,NGY,"NAGALIYA",26.735458,75.867789
stop_26_73989_75_86360,RSI,"RADHA SWAMI",26.739887,75.863596
stop_26_74983_75_85396,BIA,"BILWA",26.749828,75.853961
stop_26_78146_75_82518,SPR,"SITAPURA",26.781456,75.825179
stop_26_78533_75_82227,IAG,"INDIA GATE",26.785334,75.822269
stop_26_79645_75_81381,SEC8,"SECTOR 8",26.796449,75.813812
stop_26_80350_75_80845,SEC5,"SECTOR 5",26.803504,75.808448
stop_26_80875_75_80453,GHA,"GOSHALA",26.808754,75.804531
stop_26_81926_75_79650,SGT,"SANGANER THANA",26.819257,75.796501
stop_26_82898_75_79413,RMN,"RAM MANDIR",26.828983,75.794126
stop_26_83580_75_79384,RMR,"TARO KI KOOT",26.835797,75.793836
stop_26_84410_75_79345,JAWAC,"JAWAHAR CIRCLE",26.844099,75.793451
stop_26_84985_75_79386,DGP,"DURGAPURA",26.849846,75.793861
stop_26_86629_75_79645,JHC,"GOPALPURA",26.866293,75.796451
stop_26_88690_75_80246,GNMOD,"GANDHI NAGAR MOD",26.886899,75.802456
stop_26_89118_75_80541,TKP,"LAL KOTHI",26.891177,75.805413
stop_26_89932_75_81206,NSCIR,"NARAYAN SINGH CIRCLE",26.899318,75.812061
stop_26_91498_75_81673,MLAGE,"MAHARANI COLLAGE",26.91498,75.816732
stop_26_89993_75_81248,LOI,"LALNIWAS",26.899926,75.81248
stop_26_89520_75_80890,RBC,"RAMBAGH CIRCLE",26.895201,75.808903
stop_26_89116_75_80554,TKP,"LAL KOTHI",26.89116,75.80554
stop_26_87552_75_79635,SKGAT,"SAYEED KA GATTA",26.87552,75.79635
stop_26_86259_75_79591,VASUN,"VASUNDHARA",26.862592,75.795908
stop_26_86841_75_84040,TNAGA,"TRIVENI NAGAR",26.86841,75.8404
stop_26_87250_75_77689,RIDHI,"RIDHI SIDHI",26.8725,75.77689
stop_26_88083_75_76626,GKTHA,"GUJAR KI THADI",26.88083,75.76626
stop_26_87940_75_76152,GANGA,"GANGA JAMUNA",26.8794,75.76152
stop_26_87165_75_75513,SWARA,"SWARAN PATH",26.871647,75.755125
stop_26_86125_75_75509,ARAWA,"ARAWALI PATH",26.861245,75.755086
stop_26_86144_75_76293,VTROA,"VT ROAD",26.86144,75.76293
stop_26_84752_75_75180,BABAP,"BABA PARADISE",26.847516,75.751801
stop_26_84286_75_74751,PATRA,"PATRAKAR COLONY",26.842855,75.747508
stop_26_86040_75_76384,VTROA,"VT ROAD",26.8604,75.76384
stop_26_87960_75_76159,GANGA,"GANGA JAMUNA",26.8796,75.76159
stop_26_88058_75_76499,GKTHA,"GUJAR KI THADI",26.88058,75.76499
stop_26_86410_75_78409,TNAGA,"TRIVENI NAGAR",26.8641,75.78409
stop_26_86590_75_79670,SKGAT,"SAYEED KA GATTA",26.8659,75.7967
stop_26_90001_75_81221,LOI,"LALNIWAS",26.900006,75.812213
stop_26_91170_75_81634,MLAGE,"MAHARANI COLLAGE",26.9117,75.81634
stop_26_92773_75_80564,CDE,"CHANDPOLE",26.927733,75.805638
stop_26_92904_75_80358,MYANK,"MAYANK",26.929042,75.803584
stop_26_93024_75_80188,PRH,"POWER HOUSE",26.930244,75.801878
stop_26_93286_75_79744,PTORY,"PITAL FACTORY",26.932858,75.797444
stop_26_93553_75_79258,TBHOS,"T.B.HOSPITAL",26.935528,75.792582
stop_26_93856_75_78786,PPACH,"PANI PACH",26.938556,75.787856
stop_26_93996_75_77474,CUA,"CHOMU PULIYA",26.939958,75.774739
stop_26_94165_75_76785,JHOTW,"JHOTWARA CIRCLE",26.941645,75.767853
stop_26_94165_75_76784,PMITI,"PANCHAYAT SAMITI",26.941654,75.767835
stop_26_94435_75_74357,KANTA,"KANTA",26.94435,75.743569
stop_26_94502_75_73715,JIG,"JOSHI MARG",26.945018,75.73715
stop_26_94692_75_72526,SHEKH,"SHEKHAWAT MARG",26.94692,75.725265
stop_26_94769_75_72173,RNG,"RAVAN GATE",26.94769,75.721729
stop_26_94973_75_71071,KARDH,"KARDHANI 9 DUKAN",26.949728,75.710706
stop_26_95078_75_70516,GOVIN,"GOVINDAM TOWER",26.950777,75.705156
stop_26_95152_75_70189,GDA,"GOVINDPURA (24)",26.951516,75.701886
stop_26_95450_75_69458,MANG,"MANGLAM CITY",26.954497,75.69458
stop_26_95660_75_68006,HATOJ,"HATOJ",26.956601,75.680056
stop_26_95866_75_67198,ROYAL,"ROYAL CITY",26.958657,75.671977
stop_26_96606_75_65793,MACHW,"MACHWA",26.966063,75.657931
stop_26_96992_75_64752,RAMKU,"RAMKUTIYA",26.969922,75.64752
stop_26_97304_75_63401,CHAMP,"CHAMPURA",26.97304,75.63401
stop_26_97612_75_61935,BHAMB,"BHAMBORI",26.976118,75.619355
stop_26_98641_75_58638,KALWA,"KALWAD MOD",26.98641,75.58638
stop_26_98975_75_58392,KAL,"KALWAR",26.989754,75.583925
stop_26_98994_75_58385,KAL,"KALWAR",26.98994,75.583853
stop_26_97617_75_61961,BHAMB,"BHAMBORI",26.976173,75.619605
stop_26_97325_75_63376,CHAMP,"CHAMPURA",26.973249,75.633764
stop_26_97004_75_64767,RAMKU,"RAMKUTIYA",26.97004,75.647667
stop_26_96616_75_65801,MACHW,"MACHWA",26.966164,75.658014
stop_26_96306_75_66366,ROYAL,"ROYAL CITY",26.963063,75.663662
stop_26_95671_75_68001,HATOJ,"HATOJ",26.956714,75.680015
stop_26_95462_75_69469,MANG,"MANGLAM CITY",26.95462,75.69469
stop_26_95157_75_70216,GDA,"GOVINDPURA (24)",26.951568,75.702165
stop_26_95049_75_70676,GOVIN,"GOVINDAM TOWER",26.950486,75.706755
stop_26_94984_75_71071,KARDH,"KARDHANI 9 DUKAN",26.949844,75.710707
stop_26_94799_75_72058,RNG,"RAVAN GATE",26.94799,75.720578
stop_26_94706_75_72539,SHEKH,"SHEKHAWAT MARG",26.947056,75.725389
stop_26_94521_75_73674,JIG,"JOSHI MARG",26.945209,75.736745
stop_26_94434_75_74421,KANTA,"KANTA",26.944345,75.744208
stop_26_94340_75_74887,MEDIC,"MEDICIAL CENTRE",26.943399,75.748867
stop_26_94315_75_75117,PMITI,"PANCHAYAT SAMITI",26.943149,75.751168
stop_26_94171_75_76789,JHOTW,"JHOTWARA CIRCLE",26.941712,75.767892
stop_26_93856_75_78808,PPACH,"PANI PACH",26.938556,75.788084
stop_26_93293_75_79760,PTORY,"PITAL FACTORY",26.932933,75.797602
stop_26_93035_75_80198,PRH,"POWER HOUSE",26.930349,75.801976
stop_26_92700_75_80841,CDE,"CHANDPOLE",26.927001,75.808413
stop_26_90025_75_81304,RBH,"SMS HOSPITAL",26.900249,75.813043
stop_26_89609_75_80984,NSCIR,"NARAYAN SINGH CIRCLE",26.896093,75.809842
stop_26_89228_75_80662,RBC,"RAMBAGH CIRCLE",26.892282,75.806625
stop_26_87173_75_79751,GLA,"TONK PHATAK",26.871726,75.797505
stop_26_85124_75_79438,JHC,"GOPALPURA",26.85124,75.79438
stop_26_80984_75_80560,SGT,"SANGANER THANA",26.80984,75.8056
stop_26_80888_75_80469,BOOKI,"BOOKING",26.808882,75.804688
stop_26_80498_75_80759,GHA,"GOSHALA",26.804978,75.807592
stop_26_80411_75_80824,SECT3,"SECTOR 3",26.804112,75.80824
stop_26_79640_75_81412,SEC5,"SECTOR 5",26.796397,75.81412
stop_26_78462_75_82304,SEC8,"SECTOR 8",26.784618,75.823043
stop_26_78006_75_82673,IAG,"INDIA GATE",26.780057,75.826733
stop_26_74085_75_86297,BIA,"BILWA",26.740855,75.862971
stop_26_73396_75_86966,RSI,"RADHA SWAMI",26.733964,75.869662
stop_26_72241_75_92772,SDA,"SHIVDASPURA",26.722411,75.927723
stop_26_72368_75_92301,GOLYS,"GOLYAWAS",26.723677,75.923013
stop_26_72095_75_92301,BAPMR,"BADA PADAMPURA",26.720954,75.923013
stop_26_72673_75_87542,NKR,"NANAKPURA",26.726728,75.87542
stop_26_73693_75_86643,NGY,"NAGALIYA",26.736935,75.866432
stop_26_74133_75_86219,RSI,"RADHA SWAMI",26.741332,75.862186
stop_26_74927_75_85441,BIA,"BILWA",26.749267,75.85441
stop_26_78545_75_82215,IAG,"INDIA GATE",26.785448,75.822151
stop_26_79616_75_81399,SEC8,"SECTOR 8",26.796165,75.813986
stop_26_80342_75_80845,SEC5,"SECTOR 5",26.803423,75.808449
stop_26_80744_75_80547,SECT3,"SECTOR 3",26.80744,75.805466
stop_26_81104_75_80277,BOOKI,"BOOKING",26.81104,75.802769
stop_26_82649_75_79425,RMN,"RAM MANDIR",26.826489,75.79425
stop_26_83648_75_79373,RMR,"TARO KI KOOT",26.836482,75.793732
stop_26_86575_75_79634,JHC,"GOPALPURA",26.865751,75.796338
stop_26_88183_75_79980,GLA,"TONK PHATAK",26.881832,75.799802
stop_26_89126_75_80533,TKP,"LAL KOTHI",26.891255,75.805332
stop_26_90039_75_81221,NSCIR,"NARAYAN SINGH CIRCLE",26.900389,75.812213
stop_26_91501_75_81665,MLAGE,"MAHARANI COLLAGE",26.915007,75.816649
stop_26_89444_75_80845,NSCIR,"NARAYAN SINGH CIRCLE",26.89444,75.808446
stop_26_88714_75_80275,TKP,"LAL KOTHI",26.887139,75.802746
stop_26_80276_75_80846,SECT3,"SECTOR 3",26.802757,75.80846
stop_26_78542_75_82242,SEC8,"SECTOR 8",26.785417,75.822416
stop_26_73398_75_86960,RSI,"RADHA SWAMI",26.733975,75.869597
stop_26_70790_75_89021,NKR,"NANAKPURA",26.7079,75.890211
stop_26_68591_75_87802,SDA,"SHIVDASPURA",26.685908,75.878024
stop_26_67969_75_86569,CHDLA,"CHANDLAI",26.679691,75.865692
stop_26_67506_75_85544,BHOJA,"BHOJAN",26.675064,75.855438
stop_26_65973_75_83097,BANSA,"BANSA",26.659731,75.830966
stop_26_65980_75_83097,TITR,"TITRIYA",26.6598,75.830972
stop_26_66077_75_83079,TITR,"TITRIYA",26.660765,75.830794
stop_26_67421_75_85376,BANSA,"BANSA",26.674211,75.85376
stop_26_67791_75_86042,BHOJA,"BHOJAN",26.677915,75.860415
stop_26_70297_75_89134,SDA,"SHIVDASPURA",26.702972,75.89134
stop_26_73511_75_87572,NKR,"NANAKPURA",26.735114,75.87572
stop_26_73713_75_86632,NGY,"NAGALIYA",26.737126,75.866323
stop_26_74145_75_86386,RSI,"RADHA SWAMI",26.741446,75.86386
stop_26_74937_75_85438,BIA,"BILWA",26.749367,75.854378
stop_26_79080_75_81812,SEC8,"SECTOR 8",26.790803,75.818115
stop_26_80615_75_80644,SECT3,"SECTOR 3",26.806148,75.806443
stop_26_85127_75_79417,MNAGA,"MAHAVEER NAGAR",26.851268,75.794173
stop_26_86581_75_79669,JHC,"GOPALPURA",26.865813,75.79669
stop_26_87344_75_79743,SKGAT,"SAYEED KA GATTA",26.87344,75.79743
stop_26_87956_75_79890,GLA,"TONK PHATAK",26.879558,75.798903
stop_26_89437_75_80817,TKP,"LAL KOTHI",26.894371,75.808166
stop_26_89639_75_80984,RBC,"RAMBAGH CIRCLE",26.896388,75.809838
stop_26_81088_75_54216,BGU,"BAGRU",26.810882,75.542161
stop_26_82580_75_56026,DAI,"DAMBI",26.825804,75.560263
stop_26_82944_75_57039,HYG,"HIGHWAY KING",26.82944,75.570392
stop_26_83888_75_56530,DEVLI,"DEVLIYA",26.838878,75.565303
stop_26_85424_75_57716,SADHU,"SADHUWALA",26.85424,75.57716
stop_26_86190_75_58313,SRB,"SANJH RIVER BAGUS MODE",26.8619,75.58313
stop_26_85645_75_59937,RAMPU,"RAMPURA",26.856454,75.599371
stop_26_84608_75_62241,TKA,"THIKARIYA",26.846082,75.622409
stop_26_84972_75_63579,BKB,"BAD KE BALAJI",26.849723,75.63579
stop_26_85372_75_64873,RDA,"RAMCHANDRAPURA",26.853723,75.648726
stop_26_86084_75_67009,MPD,"MAHAPURA MOD",26.860844,75.670091
stop_26_87210_75_70050,BKA,"BHAKROTA",26.8721,75.700504
stop_26_87503_75_70852,KHP,"KESHAV PURA",26.875028,75.708515
stop_26_87817_75_71555,KNR,"KAMLA NEHRU NAGAR",26.878169,75.715548
stop_26_88527_75_72947,PRH,"POWER HOUSE",26.885265,75.729466
stop_26_88887_75_73690,HAP,"HEERA PURA",26.888869,75.736902
stop_26_89103_75_74123,DCM,"DCM",26.891033,75.741225
stop_26_89667_75_75254,KSD,"KINGS ROAD",26.896672,75.752541
stop_26_89733_75_75376,PIC,"PURANI CHUNGI",26.897334,75.753761
stop_26_90170_75_77183,SAL,"SODALA",26.901702,75.771827
stop_26_90626_75_77702,ESICH,"ESIC HOSPITAL",26.906264,75.777024
stop_26_91112_75_78448,MRN,"MAJDUR NAGAR",26.911123,75.784477
stop_26_91453_75_79388,HHI,"HATHROI",26.914533,75.793877
stop_26_91604_75_79832,SIR,"SHALIMAR",26.916041,75.79832
stop_26_91672_75_80044,SIR,"SHALIMAR",26.91672,75.80044
stop_26_91230_75_78753,HHI,"HATHROI",26.9123,75.78753
stop_26_90957_75_78135,MRN,"MAJDUR NAGAR",26.90957,75.78135
stop_26_90608_75_77724,ESICH,"ESIC HOSPITAL",26.90608,75.77724
stop_26_90152_75_77253,SAL,"SODALA",26.90152,75.77253
stop_26_89821_75_75912,PIC,"PURANI CHUNGI",26.89821,75.75912
stop_26_89585_75_75109,KSD,"KINGS ROAD",26.89585,75.75109
stop_26_89416_75_74764,DCM,"DCM",26.89416,75.74764
stop_26_88922_75_73805,HAP,"HEERA PURA",26.88922,75.738052
stop_26_87811_75_71226,KNR,"KAMLA NEHRU NAGAR",26.87811,75.71226
stop_26_87541_75_71073,KHP,"KESHAV PURA",26.875408,75.710728
stop_26_86173_75_67306,MPD,"MAHAPURA MOD",26.86173,75.67306
stop_26_85179_75_64359,RDA,"RAMCHANDRAPURA",26.85179,75.64359
stop_26_84972_75_63648,BKB,"BAD KE BALAJI",26.84972,75.63648
stop_26_84562_75_62303,TKA,"THIKARIYA",26.84562,75.62303
stop_5_57036_75_61568,RAMPU,"RAMPURA",5.570365,75.615676
stop_26_83753_75_59794,DEVLI,"DEVLIYA",26.837534,75.597935
stop_26_82568_75_56031,DAI,"DAMBI",26.82568,75.56031
stop_26_81160_75_54206,BGU,"BAGRU",26.8116,75.54206
stop_26_78585_75_91107,GNR,"GONER",26.785853,75.911072
stop_26_80181_75_90420,SRI,"SIROLI",26.8018102,75.904201
stop_26_81880_75_90150,DNI,"DANTLI",26.818796,75.9015
stop_26_83648_75_89814,RYK,"RAILWAY PHATAK",26.836475,75.898137
stop_26_84920_75_89924,GB27,"GOVINDPURA",26.849195,75.89924
stop_26_85882_75_89328,VYM,"VIDHIYA MOD",26.858819,75.893281
stop_26_86690_75_89182,LYS,"LUNIYAWAS",26.866905,75.891822
stop_26_88138_75_87775,MKP,"MACHCH KI PIPALI",26.881384,75.877746
stop_26_88545_75_87397,PRH,"POWER HOUSE",26.885445,75.87397
stop_26_89330_75_86565,KNY,"KHANIYA",26.893303,75.865649
stop_26_90445_75_84454,TRANS,"TRANSPORT NGR",26.90445,75.84454
stop_26_91342_75_83267,GTG,"GHAT GATE",26.91342,75.832668
stop_26_91451_75_81687,AJG,"AJMERI GATE",26.91451,75.816866
stop_26_89987_75_81270,RBH,"SMS HOSPITAL",26.899871,75.8127
stop_26_84988_75_79403,JHC,"GOPALPURA",26.849876,75.794035
stop_26_83826_75_79391,DGP,"DURGAPURA",26.838259,75.793907
stop_26_82911_75_79425,RMR,"TARO KI KOOT",26.82911,75.794253
stop_26_81871_75_79732,RMN,"RAM MANDIR",26.818711,75.797324
stop_26_81096_75_80304,SGT,"SANGANER THANA",26.810963,75.803045
stop_26_80273_75_80922,GHA,"GOSHALA",26.802733,75.809223
stop_26_77997_75_82651,IAG,"INDIA GATE",26.77997,75.826508
stop_26_76895_75_83493,SPR,"SITAPURA",26.768949,75.834926
stop_26_75481_75_82312,12M,"12 MILE",26.754808,75.823122
stop_26_74603_75_82044,AWA,"ASHAWALA",26.746026,75.820444
stop_26_73728_75_81772,KLA,"KALLAWALA",26.737278,75.817717
stop_26_71301_75_80372,BTL,"BHATAWALA",26.713014,75.803724
stop_26_71364_75_80437,WIA,"WATIKA",26.713644,75.804365
stop_26_71317_75_80383,WIA,"WATIKA",26.713173,75.803832
stop_26_73719_75_81761,BTL,"BHATAWALA",26.73719,75.817608
stop_26_74608_75_82035,KLA,"KALLAWALA",26.746082,75.82035
stop_26_75517_75_82311,AWA,"ASHAWALA",26.755165,75.823108
stop_26_77985_75_82641,SPR,"SITAPURA",26.77985,75.826412
stop_26_79889_75_81200,SEC8,"SECTOR 8",26.798888,75.811996
stop_26_85103_75_79404,DGP,"DURGAPURA",26.851034,75.79404
stop_26_86573_75_79637,JHC,"GOPALPURA",26.865727,75.796375
stop_26_91592_75_82101,AJG,"AJMERI GATE",26.915918,75.82101
stop_26_90424_75_84474,GTG,"GHAT GATE",26.904239,75.844741
stop_26_89073_75_87451,TRANS,"TRANSPORT NGR",26.890729,75.87451
stop_26_88149_75_87774,PRH,"POWER HOUSE",26.881485,75.877742
stop_26_86653_75_89212,MKP,"MACHCH KI PIPALI",26.866529,75.892119
stop_26_85889_75_89327,LYS,"LUNIYAWAS",26.858886,75.893268
stop_26_84934_75_89924,VYM,"VIDHIYA MOD",26.849338,75.899239
stop_26_83632_75_89821,GB27,"GOVINDPURA",26.836321,75.898214
stop_26_80216_75_90413,DNI,"DANTLI",26.80216,75.904128
stop_26_89430_75_80840,NSCIR,"NARAYAN SINGH CIRCLE",26.894303,75.808405
stop_26_89158_75_80662,RBC,"RAMBAGH CIRCLE",26.891577,75.806625
stop_26_88696_75_80276,TKP,"LAL KOTHI",26.886955,75.802764
stop_26_86233_75_79612,SKGAT,"SAYEED KA GATTA",26.86233,75.796118
stop_26_81870_75_79582,RMN,"RAM MANDIR",26.8187,75.795819
stop_26_81451_75_78117,SGT,"SANGANER THANA",26.814506,75.781165
stop_26_81057_75_77994,STADI,"STADIUM",26.810572,75.779938
stop_26_81003_75_77917,MGATE,"MALPURA GATE",26.810032,75.779172
stop_26_80635_75_77638,RPULI,"RAILWAY PULIYA",26.806346,75.776376
stop_26_79771_75_77033,KKDHA,"KUMAWATO KI DHANI",26.797706,75.770326
stop_26_78249_75_76043,MMMOD,"MUHANA MANDHI MOD",26.782492,75.760434
stop_26_77991_75_75804,MPURA,"MADRAMPURA",26.779909,75.75804
stop_26_77511_75_75523,SHMOD,"SHIKARPURA MOD",26.775111,75.755229
stop_26_76357_75_74846,JAGAN,"JAGANNATHPURA",26.76357,75.74846
stop_26_74831_75_71463,RATLA,"RATLAYA MOD",26.74831,75.71463
stop_26_73134_75_71463,BALAW,"BALAWALA",26.73134,75.71463
stop_26_72160_75_70022,BANYA,"BANYAWALI",26.721595,75.700222
stop_26_71388_75_69383,TILAW,"TILAWALA",26.713884,75.693828
stop_26_71191_75_69161,RNMOD,"ROHINI NAGAR MOD",26.711908,75.691612
stop_26_69311_75_67985,PMOD,"PAHADIYA MOD",26.69311,75.67985
stop_26_69306_75_68021,28,"RENWAL",26.693062,75.680211
stop_26_71300_75_69268,PMOD,"PAHADIYA MOD",26.713,75.69268
stop_26_71804_75_69808,RNMOD,"ROHINI NAGAR MOD",26.718035,75.698077
stop_26_72217_75_70063,TILAW,"TILAWALA",26.72217,75.70063
stop_26_74831_75_73303,BALAW,"BALAWALA",26.74831,75.73303
stop_26_77514_75_75507,JAGAN,"JAGANNATHPURA",26.775138,75.755073
stop_26_78017_75_75804,SHMOD,"SHIKARPURA MOD",26.780167,75.758035
stop_26_78230_75_75979,MPURA,"MADRAMPURA",26.7823,75.75979
stop_26_79789_75_77015,MMMOD,"MUHANA MANDHI MOD",26.79789,75.770154
stop_26_80633_75_77609,KKDHA,"KUMAWATO KI DHANI",26.806327,75.776092
stop_26_81051_75_77948,RPULI,"RAILWAY PULIYA",26.810508,75.779479
stop_26_81464_75_78101,MGATE,"MALPURA GATE",26.814636,75.781015
stop_26_81893_75_78325,STADI,"STADIUM",26.81893,75.783248
stop_26_84203_75_79348,CPLEX,"CITY PLEX",26.842027,75.793476
stop_26_85124_75_79519,MNAGA,"MAHAVEER NAGAR",26.85124,75.795189
stop_26_86249_75_79587,JHC,"GOPALPURA",26.862495,75.79587
stop_26_89106_75_80536,TKP,"LAL KOTHI",26.891062,75.805362
stop_26_89656_75_80992,RBC,"RAMBAGH CIRCLE",26.89656,75.809924
stop_26_92326_75_82679,BOPAR,"BADI CHOPAR",26.92326,75.82679
stop_26_92973_75_82886,SHOWK,"SUBHASH CHOWK",26.92973,75.82886
stop_26_93526_75_83346,JSATE,"JORAWER SINGH GATE",26.93526,75.83346
stop_26_93983_75_83729,GANAR,"GOVIND NAGAR",26.93983,75.83729
stop_26_94613_75_84063,BIR,"RAMGARH MODE",26.94613,75.84063
stop_26_94725_75_85196,CIN,"CHUNGI NAKA",26.94725,75.85196
stop_26_95103_75_86181,JAISI,"JAISINGHPHURA MOD",26.95103,75.86181
stop_26_96109_75_86796,SADWA,"SADWA",26.96109,75.86796
stop_26_96855_75_90445,LALW,"LALWAS",26.96855,75.90445
stop_26_96832_75_89238,NAIKT,"NAI KI TADI",26.96832,75.89238
stop_26_96915_75_90587,CHAMU,"CHAMUNDA MATA",26.96915,75.90587
stop_26_97193_75_91465,HATWA,"HATWARA",26.97193,75.91465
stop_26_97889_75_92453,SAIPR,"SAIPURA",26.97889,75.92453
stop_26_98887_75_95250,CHAIN,"CHAINPURA",26.98887,75.9525
stop_26_99468_75_96925,HWALA,"HEERA WALA",26.99468,75.96925
stop_27_00224_75_97882,LALI,"LAALI",27.00224,75.97882
stop_27_00583_75_98173,NAYAB,"NAYABAS",27.00583,75.98173
stop_27_01896_75_99867,GDMOD,"G D MODE",27.01896,75.99867
stop_27_01865_76_01422,RAMGA,"RAMGARH",27.01865,76.01422
stop_27_01852_76_01414,RAMGA,"RAMGARH",27.01852,76.01414
stop_27_01746_76_00249,GDMOD,"G D MODE",27.01746,76.00249
stop_27_01547_75_99048,NAYAB,"NAYABAS",27.01547,75.99048
stop_27_00220_75_97896,LALI,"LAALI",27.0022,75.97896
stop_27_00009_75_97644,HWALA,"HEERA WALA",27.00009,75.97644
stop_26_98835_75_95743,CHAIN,"CHAINPURA",26.98835,75.95743
stop_26_98746_75_94899,SAIPR,"SAIPURA",26.98746,75.94899
stop_26_97215_75_91484,HATWA,"HATWARA",26.97215,75.91484
stop_26_97003_75_90739,CHAMU,"CHAMUNDA MATA",26.97003,75.90739
stop_26_96778_75_89564,NAIKT,"NAI KI TADI",26.96778,75.89564
stop_26_96680_75_88212,LALW,"LALWAS",26.9668,75.88212
stop_26_96247_75_87062,SADWA,"SADWA",26.96247,75.87062
stop_26_95089_75_86181,JAISI,"JAISINGHPHURA MOD",26.95089,75.86181
stop_26_94611_75_84991,CIN,"CHUNGI NAKA",26.94611,75.84991
stop_26_94609_75_84491,BIR,"RAMGARH MODE",26.94609,75.84491
stop_26_94329_75_83942,GANAR,"GOVIND NAGAR",26.94329,75.83942
stop_26_93551_75_83361,JSATE,"JORAWER SINGH GATE",26.93551,75.83361
stop_26_92923_75_83179,SHOWK,"SUBHASH CHOWK",26.92923,75.83179
stop_26_92420_75_82725,BOPAR,"BADI CHOPAR",26.9242,75.82725
stop_26_91809_75_98683,VINAY,"VINAYAK CAMPUS",26.918087,75.986826
stop_26_92112_75_97487,NAYAL,"NAYALA",26.92112,75.97487
stop_26_91444_75_96830,GWALA,"GILA WALA",26.91444,75.9683
stop_26_89881_75_96051,HWALA,"HEERA WALA",26.898811,75.960513
stop_26_88408_75_95315,RANTA,"RICCO KANTA",26.884077,75.953155
stop_26_87458_75_94918,KOA,"KANOTA",26.87458,75.94918
stop_26_87789_75_92928,BRA,"BAGARANA",26.87789,75.92928
stop_26_88175_75_90998,CIN,"CHUNGI NAKA",26.8817512,75.9099777
stop_26_88345_75_90195,BWI,"BAWDI",26.88345,75.90195
stop_26_89278_75_86787,SHARM,"SHARMA BHOJNALAYA",26.892782,75.867871
stop_26_88971_75_87761,NEELK,"NEELKANTH PARADISE",26.889715,75.877607
stop_26_88871_75_88224,PMN,"PREM NAGAR",26.88871,75.88224
stop_26_88896_75_88028,MIK,"MURGI KHANA",26.88896,75.88028
stop_26_91260_75_83510,KNY,"KHANIYA",26.9126,75.8351
stop_26_90441_75_84469,TRANS,"TRANSPORT NGR",26.90441,75.84469
stop_26_91548_75_82349,SGG,"SANGANERI GATE",26.91548,75.82349
stop_26_87931_75_79876,SBM,"SABJI MANDI",26.87931,75.79876
stop_26_86587_75_79633,GPMOD,"GOPAL PURA MOD",26.86587,75.79633
stop_26_87360_75_77695,SURYA,"SURYA NGR",26.8736,75.77695
stop_26_88030_75_76721,GURJA,"GURJAR KI THADI",26.8803,75.76721
stop_26_87560_75_72307,BADAR,"BADARWAS",26.8756,75.72307
stop_26_87554_75_72590,VAGAR,"VARDHMAN NAGAR",26.87554,75.7259
stop_26_87574_75_72585,GAMOD,"GAJSINGHPURA MOD",26.87574,75.72585
stop_26_87372_75_72227,NVHAR,"NARAIN VIHAR",26.87372,75.72227
stop_26_87776_75_71733,KNR,"KAMLA NEHRU NAGAR",26.87776,75.71733
stop_26_87642_75_71175,RBTH,"RSBTDA BUS TERMINAL HEERAPURA",26.87642,75.71175
stop_26_87577_75_72585,GAMOD,"GAJSINGHPURA MOD",26.87577,75.72585
stop_26_88058_75_76716,GURJA,"GURJAR KI THADI",26.88058,75.76716
stop_26_91520_75_82356,SGG,"SANGANERI GATE",26.9152,75.82356
stop_26_91331_75_83329,GTG,"GHAT GATE",26.91331,75.83329
stop_26_89485_75_86305,KNY,"KHANIYA",26.89485,75.86305
stop_26_89906_75_96055,HWALA,"HEERA WALA",26.899059,75.960554
stop_26_92102_75_97484,NAYAL,"NAYALA",26.92102,75.97484
stop_26_94636_75_90404,JAIST,"JAISINGHPURA THANA",26.946356,75.90404
stop_26_94804_75_89336,JDAC,"J.D.A.COLONY",26.94804,75.89336
stop_26_95069_75_88361,HARJI,"HARJI VIHAR",26.950693,75.883611
stop_26_95051_75_87898,JKHOR,"JAISINGHPURA KHOR",26.950508,75.878983
stop_26_95102_75_86223,JAISI,"JAISINGHPHURA MOD",26.951022,75.862228
stop_26_94617_75_85067,CIN,"CHUNGI NAKA",26.946171,75.850666
stop_26_94573_75_84004,BIR,"RAMGARH MODE",26.945731,75.84004
stop_26_93954_75_83722,GANAR,"GOVIND NAGAR",26.939544,75.83722
stop_26_93621_75_83398,JSATE,"JORAWER SINGH GATE",26.936213,75.83398
stop_26_87236_75_79741,GLA,"TONK PHATAK",26.872359,75.797411
stop_26_86746_75_78488,JHC,"GOPALPURA",26.867462,75.784879
stop_26_86485_75_77320,DTION,"DURGAPURA STATION",26.864847,75.7732
stop_26_85445_75_77349,MFARM,"MAHARANI FARM",26.854454,75.773494
stop_26_84513_75_77699,SPATH,"SHIPRA PATH",26.845134,75.776986
stop_26_83980_75_77644,SFSLE,"SFS CIRCLE",26.839796,75.776438
stop_26_84005_75_76952,ICG,"ICG",26.840054,75.769519
stop_26_83711_75_76886,SAGAR,"SUMER NAGAR",26.837112,75.768856
stop_26_82950_75_77445,RANTA,"RICCO KANTA",26.829498,75.774448
stop_26_81897_75_77265,RAMF,"RAMPURA FATAK",26.818971,75.772647
stop_26_81476_75_76381,ANAND,"ANANDAM MANGLAM",26.81476,75.76381
stop_26_81695_75_77235,ANAND,"ANANDAM MANGLAM",26.81695,75.772353
stop_26_81838_75_77256,RAMF,"RAMPURA FATAK",26.818377,75.772559
stop_26_82682_75_77699,RANTA,"RICCO KANTA",26.826823,75.776992
stop_26_83922_75_76782,SAGAR,"SUMER NAGAR",26.83922,75.76782
stop_26_84069_75_77071,ICG,"ICG",26.840689,75.770707
stop_26_84030_75_77415,SFSLE,"SFS CIRCLE",26.8403,75.77415
stop_26_85458_75_77326,MFARM,"MAHARANI FARM",26.854583,75.773264
stop_26_86479_75_77289,DTION,"DURGAPURA STATION",26.864789,75.772893
stop_26_86699_75_78507,JHC,"GOPALPURA",26.866994,75.785065
stop_26_87103_75_79710,GLA,"TONK PHATAK",26.871033,75.797101
stop_26_92979_75_82879,JSATE,"JORAWER SINGH GATE",26.929794,75.828789
stop_26_94500_75_83973,CIN,"CHUNGI NAKA",26.944999,75.839734
stop_26_94623_75_85044,JAISI,"JAISINGHPHURA MOD",26.94623,75.850441
stop_26_95106_75_86249,JKHOR,"JAISINGHPURA KHOR",26.951058,75.862485
stop_26_95057_75_87886,HARJI,"HARJI VIHAR",26.950566,75.878856
stop_26_94963_75_88681,JDAC,"J.D.A.COLONY",26.949627,75.886814
stop_27_04080_75_89478,A3,"KUKAS",27.040804,75.894779
stop_26_99605_75_87645,3A,"KUNDA",26.996053,75.876447
stop_26_98812_75_85529,AMBER,"AMER",26.988119,75.855289
stop_26_96326_75_84623,JGE,"KANAK GHATI",26.96326,75.84623
stop_26_95245_75_84199,SHK,"JAL MAHAL",26.95245,75.841991
stop_26_93671_75_83443,JSATE,"JORAWER SINGH GATE",26.936708,75.834435
stop_26_92915_75_83155,SHOWK,"SUBHASH CHOWK",26.929146,75.831552
stop_26_92272_75_82689,BOPAR,"BADI CHOPAR",26.922725,75.826895
stop_26_90742_75_81529,MLAGE,"MAHARANI COLLAGE",26.907418,75.815287
stop_26_89650_75_81018,NSCIR,"NARAYAN SINGH CIRCLE",26.896504,75.810176
stop_26_87967_75_79916,GNMOD,"GANDHI NAGAR MOD",26.879669,75.799163
stop_26_83946_75_79391,DGP,"DURGAPURA",26.839457,75.793906
stop_26_81874_75_79661,RMN,"RAM MANDIR",26.818743,75.796608
stop_26_81567_75_78391,SGR,"SANGANER",26.81567,75.78391
stop_26_81565_75_78417,SGR,"SANGANER",26.815646,75.784174
stop_26_81925_75_79650,SGT,"SANGANER THANA",26.819246,75.796498
stop_26_83637_75_79376,RMR,"TARO KI KOOT",26.836366,75.793763
stop_26_83955_75_79366,JAWAC,"JAWAHAR CIRCLE",26.839545,75.793661
stop_26_86556_75_79631,JHC,"GOPALPURA",26.86556,75.796314
stop_26_87148_75_79713,SKGAT,"SAYEED KA GATTA",26.871485,75.79713
stop_26_88756_75_80279,GNMOD,"GANDHI NAGAR MOD",26.887559,75.802794
stop_26_89088_75_80515,TKP,"LAL KOTHI",26.890875,75.805154
stop_26_89614_75_80961,RBC,"RAMBAGH CIRCLE",26.896137,75.809612
stop_26_91450_75_81654,MLAGE,"MAHARANI COLLAGE",26.914504,75.816541
stop_26_91596_75_82099,AJG,"AJMERI GATE",26.915955,75.820995
stop_26_92271_75_82667,SGG,"SANGANERI GATE",26.922708,75.826674
stop_26_92943_75_83056,BOPAR,"BADI CHOPAR",26.929427,75.830564
stop_26_93580_75_83358,SHOWK,"SUBHASH CHOWK",26.935796,75.833583
stop_26_94385_75_83941,JSATE,"JORAWER SINGH GATE",26.943853,75.839406
stop_26_95248_75_84184,BIR,"RAMGARH MODE",26.95248,75.84184
stop_26_98827_75_85533,JGE,"KANAK GHATI",26.988274,75.855328
stop_26_99533_75_87608,AMBER,"AMER",26.995333,75.876077
stop_27_04096_75_89477,3A,"KUNDA",27.040962,75.894766
stop_27_04095_75_89486,A3,"KUKAS",27.04095,75.89486
stop_26_95157_75_70208,GDR,"GOBINDPURA",26.951575,75.702079
stop_26_94793_75_72087,RNG,"RAVAN GATE",26.947934,75.720872
stop_26_94522_75_73675,JIG,"JOSHI MARG",26.945223,75.736751
stop_26_94440_75_74396,JWK,"JHOTWARA KANTA",26.944399,75.743959
stop_26_94376_75_74671,BIG,"BORING",26.943758,75.746715
stop_26_94286_75_76253,LCE,"LATA CIRCLE",26.942864,75.762534
stop_26_94028_75_77410,CUA,"CHOMU PULIYA",26.94028,75.774103
stop_26_92048_75_78938,RAILW,"RAILWAY STATION",26.920483,75.789383
stop_26_92235_75_79902,SCAMP,"SINDHI CAMP",26.922348,75.799023
stop_26_91626_75_81030,PHI,"PANCH BATI",26.916257,75.810302
stop_26_91423_75_81671,AJG,"AJMERI GATE",26.914231,75.816711
stop_26_90753_75_81527,MLAGE,"MAHARANI COLLAGE",26.907528,75.815268
stop_26_89094_75_80545,RBC,"RAMBAGH CIRCLE",26.890944,75.805445
stop_26_83938_75_79389,DGP,"DURGAPURA",26.839376,75.793886
stop_26_79669_75_81384,SEC8,"SECTOR 8",26.796692,75.81384
stop_26_77867_75_84207,AMR,"CHATRALA CIRCLE",26.778675,75.842071
stop_26_76921_75_84659,KKI,"GONER PHATAK",26.76921,75.846586
stop_26_77022_75_85301,JML,"MGH",26.770218,75.853008
stop_26_76895_75_84670,KKI,"GONER PHATAK",26.768949,75.8467
stop_26_79657_75_81375,SEC8,"SECTOR 8",26.796566,75.813751
stop_26_80367_75_80834,SEC5,"SECTOR 5",26.803667,75.808343
stop_26_81024_75_80341,GHA,"GOSHALA",26.810244,75.803413
stop_26_85079_75_79409,DGP,"DURGAPURA",26.850793,75.794086
stop_26_86621_75_79645,JHC,"GOPALPURA",26.866212,75.796446
stop_26_89556_75_80920,RBC,"RAMBAGH CIRCLE",26.89556,75.809202
stop_26_91665_75_80079,PHI,"PANCH BATI",26.916646,75.800786
stop_26_92047_75_78867,SCAMP,"SINDHI CAMP",26.920467,75.788674
stop_26_82040_75_90144,DANTL,"DANTLI PHATAK",26.8204,75.901444
stop_26_83683_75_89241,KRS,"KHATIPURA RAILWAY STATION",26.836833,75.892408
stop_26_83666_75_88503,S05,"SEC-5 JAGATPURA",26.836656,75.88503
stop_26_83624_75_87678,SEC4,"SECTOR.4",26.836239,75.876778
stop_26_83612_75_87376,S03,"SEC-3 JAGATPURA",26.836122,75.873758
stop_26_83598_75_86772,KUNDA,"KUNDAN PURA",26.83598,75.86772
stop_26_83536_75_85032,CBIPH,"CBI PHATAK",26.83536,75.85032
stop_26_83598_75_83541,JHATA,"JAGATPURA PHATAK",26.83598,75.83541
stop_26_84511_75_82926,MTOWN,"MODAL TOWN",26.84511,75.82926
stop_26_85844_75_82383,ARCLE,"APEX CIRCLE",26.85844,75.82383
stop_26_86584_75_82280,KV3,"KV3",26.865841,75.822798
stop_26_86792_75_82261,BOTHI,"BAIJI KI KOTHI",26.86792,75.82261
stop_26_87557_75_82054,RTO,"RTO",26.87557,75.82054
stop_26_88479_75_81168,GRCLE,"GANDHI CIRCLE",26.884794,75.811683
stop_26_94528_75_73677,JIG,"JOSHI MARG",26.94528,75.736771
stop_26_88494_75_81151,GRCLE,"GANDHI CIRCLE",26.884941,75.81151
stop_26_92476_75_81807,COPAR,"CHOTI CHOPAR",26.92476,75.81807
stop_26_92155_75_79709,POLOY,"POLOVICTORY",26.92155,75.797089
stop_26_92048_75_78948,RAILW,"RAILWAY STATION",26.920481,75.789478
stop_26_91583_75_77484,HASAN,"HASANPURA",26.915826,75.774844
stop_26_91543_75_77215,HATWA,"HATWARA",26.915428,75.772148
stop_26_91754_75_76681,KVNO4,"KV NO.4",26.917538,75.766806
stop_26_92087_75_75480,JHARK,"JHARKHAND MODE",26.920874,75.754797
stop_26_92283_75_74581,KTPA,"KHATIPURA",26.922826,75.745808
stop_26_92077_75_73112,PLIYA,"PANCHAYALA PULIYA",26.920772,75.731117
stop_26_92112_75_72744,PANYL,"PANCHYAWALA",26.921122,75.727436
stop_26_92190_75_72339,ALANC,"ALANKAR COLLAGE",26.921897,75.723389
stop_26_92379_75_71555,MEENA,"MEENAWALA",26.923788,75.715552
stop_26_92422_75_70624,SHEKC,"SHEKHWAT COLONY",26.924222,75.706237
stop_26_92440_75_70146,KANPR,"KANAKPURA",26.924404,75.701465
stop_26_92262_75_68789,SIRSI,"SIRSI MODE",26.922617,75.687887
stop_26_92084_75_67583,HATJM,"HATHOJ MODE",26.920845,75.675834
stop_26_92095_75_65988,BINDY,"BINDYAKA",26.920948,75.659882
stop_26_91852_75_64609,SHIWA,"SHIWAR",26.918517,75.646092
stop_26_91305_75_63821,FSN,"FIRE STATION",26.91305,75.638207
stop_26_89993_75_63068,NMD,"NIMEDA",26.899934,75.630683
stop_26_90123_75_61739,MSR,"MUNDIYARAMSAR",26.901232,75.617387
stop_26_90130_75_61743,MSR,"MUNDIYARAMSAR",26.901296,75.617429
stop_26_89997_75_63038,NMD,"NIMEDA",26.899973,75.630383
stop_26_91351_75_63864,FSN,"FIRE STATION",26.913511,75.638636
stop_26_91860_75_64582,SHIWA,"SHIWAR",26.918597,75.645823
stop_26_92111_75_66037,BINDY,"BINDYAKA",26.921111,75.66037
stop_26_92093_75_67568,HATJM,"HATHOJ MODE",26.920933,75.675679
stop_26_92270_75_68779,SIRSI,"SIRSI MODE",26.922696,75.687792
stop_26_92451_75_70120,KANPR,"KANAKPURA",26.924511,75.701196
stop_26_92435_75_70616,SHEKC,"SHEKHWAT COLONY",26.924347,75.706165
stop_26_92402_75_71516,MEENA,"MEENAWALA",26.924021,75.715159
stop_26_92356_75_71710,ALANC,"ALANKAR COLLAGE",26.923561,75.717102
stop_26_92117_75_72732,PANYL,"PANCHYAWALA",26.921171,75.72732
stop_26_92086_75_73090,PLIYA,"PANCHAYALA PULIYA",26.92086,75.730902
stop_26_92305_75_74547,KTPA,"KHATIPURA",26.92305,75.74547
stop_26_92103_75_75476,JHARK,"JHARKHAND MODE",26.921029,75.754763
stop_26_91765_75_76685,KVNO4,"KV NO.4",26.917645,75.766853
stop_26_91535_75_77194,HATWA,"HATWARA",26.915352,75.77194
stop_26_91589_75_77438,HASAN,"HASANPURA",26.915886,75.774378
stop_26_92046_75_78932,RAILW,"RAILWAY STATION",26.920459,75.789317
stop_26_92153_75_79673,POLOY,"POLOVICTORY",26.921533,75.796726
stop_26_92228_75_79889,SCAMP,"SINDHI CAMP",26.922285,75.798888
stop_26_92607_75_80697,CDE,"CHANDPOLE",26.926067,75.806966
stop_26_92484_75_81815,COPAR,"CHOTI CHOPAR",26.924835,75.818151
